Zip Code,Payday Vendor,Address,Lat,Lng
90001,ACE Cash Express,"1232 E Florence Ave, Los Angeles, CA 90001, United States",33.974583,-118.252963
90001,Easy Financial,"6003 Compton Ave, Los Angeles, CA 90001, United States",33.9855519,-118.2480603
90002,ACE Cash Express,"10005 S Central Ave, Los Angeles, CA 90002, United States",33.945482,-118.254526
90002,Continental Currency Services,"1669 E 103rd St, Los Angeles, CA 90002, United States",33.9438561,-118.244298
90002,The Check Cashing Place,"2284 E Firestone Blvd, Los Angeles, CA 90002, United States",33.957857,-118.231333
90003,Oportun,"10211 S Avalon Blvd, Los Angeles, CA 90003, United States",33.9433011,-118.2667678
90003,Speedy Cash,"454 W Florence Ave Unit 102/103, Los Angeles, CA 90003, United States",33.9744802,-118.282481
90003,Midtown Check Cashing,"7200 S Broadway, Los Angeles, CA 90003, United States",33.9745009,-118.2781537
90003,ACE Cash Express,"7205 S Figueroa St, Los Angeles, CA 90003, United States",33.974467,-118.283315
90003,Oportun,"7225 S Figueroa St, Los Angeles, CA 90003, United States",33.9738315,-118.2831165
90003,Pacific Cash Advance,"8501 S Figueroa St, Los Angeles, CA 90003, United States",33.960943,-118.282921
90003,TitleMax Title Loans,"8510 S Figueroa St, Los Angeles, CA 90003, United States",33.9607487,-118.2824832
90003,Continental Currency Services,"8565 S Broadway #1, Los Angeles, CA 90003, United States",33.9603159,-118.2785888
90004,Third & Normandie Check Cash,"280 Normandie Ave, Los Angeles, CA 90004, United States",34.0691852,-118.2998458
90004,Oportun,"4165 Beverly Blvd, Los Angeles, CA 90004, United States",34.0766789,-118.3000615
90006,ACE Cash Express,"1514 S Vermont Ave J, Los Angeles, CA 90006, United States",34.044401,-118.291213
90006,Oportun,"2024 W Pico Blvd, Los Angeles, CA 90006, United States",34.0466342,-118.2824618
90006,ACE Cash Express,"3087 W Pico Blvd Ste 1 Ste 1 Ste 1, Los Angeles, CA 90006, United States",34.047351,-118.308634
90007,Advance America,"3623 S Vermont Ave, Los Angeles, CA 90007, United States",34.02228,-118.292206
90007,Lower My Payday Loans,"3775 Vermont Ave, Los Angeles, CA 90007, United States",34.0178528,-118.2919529
90008,Check Into Cash,"3829 South, Los Angeles, CA 90008, United States",34.016585,-118.335599
90008,Continental Currency Services,"4050 S Victoria Ave, Los Angeles, CA 90008, United States",34.0078647,-118.3363782
90010,Payday Express,"3547 Wilshire Blvd, Los Angeles, CA 90010, United States",34.0618975,-118.302058
90011,Speedy Cash,"123 E Vernon Ave, Los Angeles, CA 90011, United States",34.0040284,-118.2731875
90013,Continental Currency Services,"559 S Broadway, Los Angeles, CA 90013, United States",34.0469576,-118.2521516
90015,ACE Cash Express,"1245 S Union Ave, Los Angeles, CA 90015, United States",34.045315,-118.276823
90015,ACE Cash Express,"500 E Washington Blvd, Los Angeles, CA 90015, United States",34.028744,-118.260131
90015,RPM Lenders,"936 S Union Ave, Los Angeles, CA 90015, United States",34.0497724,-118.2736883
90016,PLS Check Cashing Store,"2601 South La Brea Ave, Los Angeles, CA 90016, United States",34.0322462,-118.3515365
90016,ACE Cash Express,"2850 Crenshaw Blvd, Los Angeles, CA 90016, United States",34.029625,-118.334635
90016,Speedy Cash,"2855 Crenshaw Blvd, Los Angeles, CA 90016, United States",34.029739,-118.3353519
90016,ACE Cash Express,"3619 South La Brea Ave, Los Angeles, CA 90016, United States",34.020617,-118.35599
90016,Payday Express,"3647 South La Brea Ave, Los Angeles, CA 90016, United States",34.0201536,-118.3560975
90016,Continental Currency Services,"5804 Obama Blvd, Los Angeles, CA 90016, United States",34.0211237,-118.3726737
90018,"Cash Depot, Inc","1771 W Jefferson Blvd, Los Angeles, CA 90018, United States",34.0257985,-118.3082437
90018,Continental Currency Services,"1890 S Western Ave, Los Angeles, CA 90018, United States",34.0401184,-118.3084546
90019,ACE Cash Express,"4948 W Pico Blvd, Los Angeles, CA 90019, United States",34.047551,-118.344535
90019,Mary's Check Cashing,"5425 Venice Blvd, Los Angeles, CA 90019, United States",34.0444322,-118.3579539
90020,The Check Cashing Place,"311 S Vermont Ave, Los Angeles, CA 90020, United States",34.0686328,-118.2918472
90022,Oportun,"275 S Atlantic Blvd, East Los Angeles, CA 90022, United States",34.0327607,-118.154137
90022,Check Into Cash,"5048 Whittier Blvd, Los Angeles, CA 90022, United States",34.02063,-118.160524
90022,ACE Cash Express,"5280 E Beverly Blvd A, Los Angeles, CA 90022, United States",34.0307,-118.151601
90022,Continental Currency Services,"5623 Whittier Blvd, Commerce, CA 90022, United States",34.018899,-118.1495276
90023,Paycheck cashing and payday,"1260 S Soto St, Los Angeles, CA 90023, United States",34.026332,-118.2194249
90023,ACE Cash Express,"3359 Whittier Blvd, Los Angeles, CA 90023, United States",34.028296,-118.200914
90023,Montana Capital Car Title Loans,"827 Euclid Ave, Los Angeles, CA 90023, United States",34.0309314,-118.2074282
90025,Westwood Check Cashing Etc,"2180 Westwood Blvd #1, Los Angeles, CA 90025, United States",34.044498,-118.4319241
90026,ACE Cash Express,"1561 Sunset Blvd, Los Angeles, CA 90026, United States",34.076741,-118.256855
90026,Oportun,"2530 W Temple St, Los Angeles, CA 90026, United States",34.0721402,-118.2746046
90028,ACE Cash Express,"5609 Sunset Blvd, Hollywood, CA 90028, United States",34.098558,-118.31191
90028,OneMain Financial,"6255 Sunset Blvd #120, Los Angeles, CA 90028, United States",34.0982804,-118.3254514
90028,Money Mart,"6547 Sunset Blvd ste a, Hollywood, CA 90028, United States",34.0981397,-118.3326298
90028,Continental Currency Services,"6565 Hollywood Blvd, Los Angeles, CA 90028, United States",34.1018176,-118.3331857
90028,Hollywood Check Cashing,"7040 Sunset Blvd, Los Angeles, CA 90028, United States",34.0975368,-118.3430917
90029,Advance America,"1008 N Vermont Ave, Los Angeles, CA 90029, United States",34.090073,-118.29135
90031,ACE Cash Express,"2534 Daly St, Los Angeles, CA 90031, United States",34.076401,-118.215572
90031,Advance America,"3020 N Broadway, Lincoln Heights, CA 90031, United States",34.073566,-118.20957
90031,Oportun,"3025 N Broadway, Los Angeles, CA 90031, United States",34.0741813,-118.2094387
90032,ACE Cash Express,"4940 Huntington Dr S, Los Angeles, CA 90032, United States",34.087071,-118.175364
90032,Check Into Cash,"5150 Huntington Dr N Children's Reading, Los Angeles, CA 90032, United States",34.088766,-118.170713
90034,Check Into Cash,"10401 Venice Blvd #103, Los Angeles, CA 90034, United States",34.020662,-118.404567
90037,L.A. Cash Advance,"5401 S Figueroa St #6, Los Angeles, CA 90037, United States",33.9929753,-118.2831299
90038,DolEx Dollar Express,"5540 Santa Monica Blvd, Los Angeles, CA 90038, United States",34.0906428,-118.310683
90038,TitleMax Title Loans,"5600 Santa Monica Blvd, Los Angeles, CA 90038, United States",34.0905252,-118.3117622
90038,Oportun,"5926 Santa Monica Blvd, Los Angeles, CA 90038, United States",34.090455,-118.3186159
90038,EZ Car Title Loans,"6767 Santa Monica Blvd, Los Angeles, CA 90038, United States",34.0908927,-118.3379713
90041,5 Star Car Title Loans,"4364 Eagle Rock Blvd, Los Angeles, CA 90041, United States",34.1235492,-118.2211677
90041,ACE Cash Express,"4915 Eagle Rock Blvd, Eagle Rock, CA 90041, United States",34.13614,-118.21611
90042,Cashback Loans,"107 N Avenue 64 Ste A, Los Angeles, CA 90042, United States",34.1148718,-118.1813907
90042,Payday Advance,"107 N Avenue 64, Los Angeles, CA 90042, United States",34.1148474,-118.1814177
90042,ACE Cash Express,"5136 N Figueroa St, Los Angeles, CA 90042, United States",34.105934,-118.199775
90042,Advance America,"5441 N Figueroa St Ste. A, Highland Park, CA 90042, United States",34.10854,-118.19728
90042,Oportun,"5610 York Blvd, Los Angeles, CA 90042, United States",34.1185711,-118.1962806
90042,Check `n Go,"6100 N Figueroa St Unit G, Los Angeles, CA 90042, United States",34.1122175,-118.1874801
90042,Oportun,"6100 N Figueroa St, Los Angeles, CA 90042, United States",34.1121178,-118.1873354
90043,Continental Currency Services,"3401 W Slauson Ave, Los Angeles, CA 90043, United States",33.9892473,-118.3312428
90043,California Check Cashing Stores,"3404 W Florence Ave, Los Angeles, CA 90043, United States",33.9742018,-118.3313326
90043,Speedy Cash,"3555 W Slauson Ave, Los Angeles, CA 90043, United States",33.9892251,-118.3347103
90044,ACE Cash Express,"1015 W Florence Ave, Los Angeles, CA 90044, United States",33.974785,-118.292539
90044,ACE Cash Express,"11252 Normandie Ave #103, Los Angeles, CA 90044, United States",33.931377,-118.300052
90044,ACE Cash Express,"6214 S Vermont Ave, Los Angeles, CA 90044, United States",33.983097,-118.291291
90044,Community Loans of America Inc,"700 W Imperial Hwy # 101, Los Angeles, CA 90044, United States",33.9305517,-118.2873608
90044,Fast Pay Day Loans,"700 W Imperial Hwy, Los Angeles, CA 90044, United States",33.9304538,-118.2874244
90044,Money Mart,"8608 1/2 Vermont Ave, Los Angeles, CA 90044, United States",33.9594573,-118.2912783
90045,OneMain Financial,"8939 S Sepulveda Blvd #261, Los Angeles, CA 90045, United States",33.9548514,-118.3967145
90047,ACE Cash Express,"1754 W Slauson Ave c, Los Angeles, CA 90047, United States",33.988796,-118.308719
90047,Check `n Go,"2107 W Manchester Ave Suite 107/108, Los Angeles, CA 90047, United States",33.9601651,-118.3160303
90048,La Cienega - Los Angeles Check Cashing,"8506 W 3rd St, Los Angeles, CA 90048, United States",34.0730961,-118.3769697
90057,ACE Cash Express,"1800 W 6th St #9, Los Angeles, CA 90057, United States",34.058072,-118.271945
90057,Speedy Cash,"1801 W 6th St, Los Angeles, CA 90057, United States",34.0581227,-118.2711861
90057,Continental Currency Services,"2100 W 7th St, Los Angeles, CA 90057, United States",34.0563744,-118.2770699
90059,ACE Cash Express,"653 E El Segundo Blvd, Los Angeles, CA 90059, United States",33.916564,-118.263778
90061,Speedy Cash,"11401 S Figueroa St, Los Angeles, CA 90061, United States",33.9307166,-118.2830301
90062,ACE Cash Express,"4003 S Western Ave Ste 102 Ste 102, Los Angeles, CA 90062, United States",34.010463,-118.309465
90063,Speedy Cash,"3447 East Cesar E Chavez Avenue, Los Angeles, CA 90063, United States",34.0409419,-118.1908979
90063,Oportun,"3474 East Cesar E Chavez Avenue, Los Angeles, CA 90063, United States",34.0401428,-118.1899931
90063,ACE Cash Express,"3517 E 1st St, Los Angeles, CA 90063, United States",34.036322,-118.191698
90064,ACE Cash Express,"11201 National Blvd, Los Angeles, CA 90064, United States",34.027549,-118.429111
90064,Provident Funding,"11845 W Olympic Blvd # 1270W, Los Angeles, CA 90064, United States",34.0332161,-118.4516538
90064,American Cash Market,"2207 S Sepulveda Blvd, Los Angeles, CA 90064, United States",34.0398171,-118.4379671
90065,ACE Cash Express,"3027 N San Fernando Rd Ste 102 Ste 102, Los Angeles, CA 90065, United States",34.114174,-118.244691
90065,California Check Cashing Stores,"3127 N San Fernando Rd, Los Angeles, CA 90065, United States",34.1156069,-118.2462209
90201,ACE Cash Express,"6000 Florence Ave, Bell Gardens, CA 90201, United States",33.966845,-118.157718
90201,Continental Currency Services,"6810 Eastern Ave, Bell Gardens, CA 90201, United States",33.9705546,-118.1633341
90210,Valencia Loan Co,"435 N Bedford Dr, Beverly Hills, CA 90210, United States",34.0682823,-118.40595
90210,Beverly Loan Company,"9440 S Santa Monica Blvd #101, Beverly Hills, CA 90210, United States",34.0712964,-118.4027313
90220,Continental Currency Services,"148 E Compton Blvd, Compton, CA 90220, United States",33.8957605,-118.2228538
90220,Advance America,"208 E Compton Blvd, Compton, CA 90220, United States",33.895565,-118.22162
90220,Speedy Cash,"740 W Compton Blvd, Compton, CA 90220, United States",33.8955969,-118.2371572
90221,Oportun,"1210 N Long Beach Blvd, Compton, CA 90221, United States",33.9041918,-118.20797
90221,PLS Check Cashing Store,"13022 Atlantic Ave, Compton, CA 90221, United States",33.9038398,-118.1936592
90221,ACE Cash Express,"1330 E Alondra Blvd, Compton, CA 90221, United States",33.888375,-118.207912
90221,Check `n Go,"2109 N Long Beach Blvd, Compton, CA 90221, United States",33.9105769,-118.2092926
90221,Orange Rocket Cash,"930 N Long Beach Blvd, Compton, CA 90221, United States",33.9027851,-118.2082187
90222,Continental Currency Services,"739 Rosecrans Ave ste d ste d, Compton, CA 90222, United States",33.9036359,-118.2376684
90230,ACE Cash Express,"4738 Inglewood Blvd, Culver City, CA 90230, United States",33.993285,-118.414414
90230,OneMain Financial,"5526 Sepulveda Blvd, Culver City, CA 90230, United States",33.9926366,-118.3950145
90232,Advance America,"10200 Venice Blvd Ste. 104, Culver City, CA 90232, United States",34.021008,-118.40203
90232,Speedy Cash,"10404 Venice Blvd, Culver City, CA 90232, United States",34.0199037,-118.4039215
90232,Continental Currency Services,"10716 Washington Blvd, Culver City, CA 90232, United States",34.0163704,-118.4056484
90232,Provident Funding,"3750 S Robertson Blvd, Culver City, CA 90232, United States",34.0266169,-118.3898099
90240,Advance America,"7433 Florence Ave, Downey, CA 90240, United States",33.958714,-118.13947
90240,Payday Money Centers- Downey,"8516 Paramount Blvd, Downey, CA 90240, United States",33.966315,-118.116378
90240,Check Into Cash,"9907 Paramount Blvd, Downey, CA 90240, United States",33.9553214,-118.129083
90241,OneMain Financial,"9400 Firestone Blvd, Downey, CA 90241, United States",33.931414,-118.1163995
90242,Check `n Go,"8724 Imperial Hwy, Downey, CA 90242, United States",33.9175546,-118.1405441
90242,Speedy Cash,"8847 Imperial Hwy Ste A, Downey, CA 90242, United States",33.9173514,-118.1384869
90245,Cash Plus,"630 S Sepulveda Blvd #9a, El Segundo, CA 90245, United States",33.924425,-118.3948852
90247,Payday Express,"1124 D, W Redondo Beach Blvd, Gardena, CA 90247, United States",33.8920118,-118.2952443
90247,A Advance Payroll,"1124 W Redondo Beach Blvd # A, Gardena, CA 90247, United States",33.8920118,-118.2952443
90247,K & W Check Cashing,"14137 Vermont Ave, Gardena, CA 90247, United States",33.9025904,-118.2922435
90247,Speedy Cash,"857 W Rosecrans Ave, Gardena, CA 90247, United States",33.9023927,-118.2911931
90248,Western Avenue Check Cashing,"18016 S Western Ave, Gardena, CA 90248, United States",33.8670499,-118.3089957
90249,Orange Rocket Cash,"15324 S Western Ave, Gardena, CA 90249, United States",33.8925036,-118.3088325
90249,Payday Advance,"2249 Rosecrans Ave, Gardena, CA 90249, United States",33.9029018,-118.3185703
90250,Money Mart,"11816 Hawthorne Blvd, Hawthorne, CA 90250, United States",33.9268622,-118.3519662
90250,Oportun,"12630 Hawthorne Blvd S, Hawthorne, CA 90250, United States",33.917716,-118.351071
90250,California Check Cashing Stores,"12801 Crenshaw Blvd, Hawthorne, CA 90250, United States",33.9162576,-118.327234
90250,Hawthorn Quick Check,"12823 Prairie Ave, Hawthorne, CA 90250, United States",33.9159862,-118.3441364
90250,"Cash Depot, Inc.","12829 Hawthorne Blvd, Hawthorne, CA 90250, United States",33.9159242,-118.3530065
90250,ACE Cash Express,"3928 W Rosecrans Ave, Hawthorne, CA 90250, United States",33.900501,-118.342735
90250,Advance America,"3937 W Rosecrans Ave, Hawthorne, CA 90250, United States",33.90211,-118.342674
90250,ACE Cash Express,"4744 W El Segundo Blvd, Hawthorne, CA 90250, United States",33.91623,-118.360646
90254,MVP Car Title Loans,"1401 Manhattan Ave, Hermosa Beach, CA 90254, United States",33.8639957,-118.3996764
90255,Continental Currency Services,"2400 E Florence Ave, Huntington Park, CA 90255, United States",33.974482,-118.229997
90255,Continental Currency Services,"2451 E Florence Ave, Huntington Park, CA 90255, United States",33.9748473,-118.2288204
90255,The Check Cashing Place,"2602 Florence Ave, Huntington Park, CA 90255, United States",33.9739857,-118.2249203
90255,Check `n Go,"7006 Santa Fe Ave, Huntington Park, CA 90255, United States",33.9758367,-118.2291515
90255,"Quick Cash Loans, Inc","7136 Pacific Blvd #255, Huntington Park, CA 90255, United States",33.9744519,-118.2247061
90255,DolEx Dollar Express,"7138 Pacific Blvd, Huntington Park, CA 90255, United States",33.9744718,-118.2250032
90255,ACE Cash Express,"7201 Pacific Blvd, Huntington Park, CA 90255, United States",33.974057,-118.225589
90260,Cash 1,"14408 Hawthorne Blvd a, Lawndale, CA 90260, United States",33.9009244,-118.3521854
90260,Payday Loans,"14408 Hawthorne Blvd, Lawndale, CA 90260, United States",33.9009252,-118.3521867
90260,Sos Financial Services,"14623 Hawthorne Blvd UNIT 405, Lawndale, CA 90260, United States",33.8985046,-118.3529622
90260,PLS Check Cashing Store,"15039 S Prairie Ave, Lawndale, CA 90260, United States",33.8948649,-118.3442501
90260,OneMain Financial,"15730 Hawthorne Blvd, Lawndale, CA 90260, United States",33.8879397,-118.3514238
90260,Loaning America,"16129 Hawthorne Blvd, Lawndale, CA 90260, United States",33.8839,-118.3530614
90260,South Bay Jewelry & Loan,"16701 Hawthorne Blvd, Lawndale, CA 90260, United States",33.879307,-118.353014
90260,Check `n Go,"4443 Redondo Beach Blvd, Lawndale, CA 90260, United States",33.8737671,-118.354023
90260,Fast Cash Loans Lawndale,"Lawndale, CA 90260, United States",33.8922687,-118.3520389
90262,Check Into Cash,"10900 Long Beach Blvd Ste 104, Lynwood, CA 90262, United States",33.9341697,-118.2121128
90262,ACE Cash Express,"11098 Atlantic Ave B, Lynwood, CA 90262, United States",33.92775,-118.184358
90262,Quick Cash,"3448 Martin Luther King Jr Blvd #1908, Lynwood, CA 90262, United States",33.9360974,-118.2089202
90262,ACE Cash Express,"3797 Martin Luther King Jr Blvd, Lynwood, CA 90262, United States",33.92839,-118.199228
90270,A Check Cashing,"4020 Slauson Ave, Maywood, CA 90270, United States",33.9877048,-118.1936509
90270,ACE Cash Express,"4457 Slauson Ave, Maywood, CA 90270, United States",33.987888,-118.185986
90270,TitleMax Title Loans,"5932 Atlantic Blvd, Maywood, CA 90270, United States",33.9860677,-118.1853616
90275,Smart Payday Loan,"29135 S Western Ave, Rancho Palos Verdes, CA 90275, United States",33.7527196,-118.3094479
90280,Check 4 Cash,"4149 Tweedy Blvd # A, South Gate, CA 90280, United States",33.943872,-118.1989996
90280,Continental Currency Services,"8116 Long Beach Blvd, South Gate, CA 90280, United States",33.9643565,-118.2247405
90280,Prestamos El Compita,"9600 Long Beach Blvd suite B, South Gate, CA 90280, United States",33.9484961,-118.2166834
90291,Continental Currency Services,"315 Lincoln Blvd, Venice, CA 90291, United States",34.000887,-118.4680163
90301,Payday Express,"1275 South La Brea Ave #110, Inglewood, CA 90301, United States",33.9461504,-118.3530109
90301,Advance America,"240 N Market St, Inglewood, CA 90301, United States",33.96593,-118.351036
90301,Get Auto Car Title Loans Inglewood Ca,"520 E Arbor Vitae St, Inglewood, CA 90301, United States",33.9524706,-118.348184
90302,CFSC The Check Cashing Place Inglewood,"903 N La Brea Ave, Inglewood, CA 90302, United States",33.9747731,-118.3579369
90303,ACE Cash Express,"11121 Crenshaw Blvd, Inglewood, CA 90303, United States",33.9341597,-118.3268616
90303,Continental Currency Services,"11220 Crenshaw Blvd, Inglewood, CA 90303, United States",33.9330086,-118.3261619
90303,Oportun,"3321 W Century Blvd, Inglewood, CA 90303, United States",33.9466978,-118.329989
90304,TitleMax Loans,"10011 Hawthorne Blvd, Inglewood, CA 90304, United States",33.9449465,-118.3531862
90304,PLS Check Cashing Store,"10048 Hawthorne Blvd, Inglewood, CA 90304, United States",33.9446971,-118.3522678
90304,Avalon Check Cashing,"4147 W Century Blvd, Inglewood, CA 90304, United States",33.945717,-118.3483566
90305,Continental Currency Services,"2401 W Manchester Blvd, Inglewood, CA 90305, United States",33.9601758,-118.3201451
90401,Saba Jahanian - BancWest Investment Services Financial Advisor,"407 Colorado Ave, Santa Monica, CA 90401, United States",34.0140853,-118.4919932
90401,Santa Monica Jewelry & Loan,"408 Broadway, Santa Monica, CA 90401, United States",34.0151917,-118.4932509
90405,PayDay Loans Los Angeles Inc,"510 Pico Blvd, Santa Monica, CA 90405, United States",34.0104666,-118.4856792
90501,ACE Cash Express,"1648 W Carson St Suite A, Torrance, CA 90501, United States",33.831285,-118.308268
90501,California Cash,"21151 S Western Ave #275, Torrance, CA 90501, United States",33.8369636,-118.30997
90501,Merchant Advance Pay,"21281 S Western Ave, Torrance, CA 90501, United States",33.8358851,-118.3112146
90501,The Auto Title Loan,"2275 Torrance Blvd, Torrance, CA 90501, United States",33.8366593,-118.3235821
90503,Lendmark Financial Services LLC,"20036 Hawthorne Blvd, Torrance, CA 90503, United States",33.8501337,-118.3518054
90503,OneMain Financial,"21115 Hawthorne Blvd, Torrance, CA 90503, United States",33.8385986,-118.355163
90503,MVP Car Title Loans,"21515 Hawthorne Blvd #200, Torrance, CA 90503, United States",33.8329196,-118.3537738
90503,"S.O.S. Loans, Inc.","3655 Torrance Blvd UNIT 425, Torrance, CA 90503, United States",33.8382318,-118.3506625
90503,Check Into Cash,"4685 Torrance Blvd, Torrance, CA 90503, United States",33.8386753,-118.3631171
90504,Money Mart,"3025 Artesia Blvd suite 105, Torrance, CA 90504, United States",33.8731601,-118.3261011
90601,OneMain Financial,"11725 Whittier Blvd, Whittier, CA 90601, United States",33.9821148,-118.0512699
90602,Payday Money Centers- Whittier,"13205 Whittier Blvd, Whittier, CA 90602, United States",33.964675,-118.034851
90602,Brown's Whittier Jewelry-Loan,"7029 Greenleaf Ave, Whittier, CA 90602, United States",33.97822,-118.037725
90602,Oportun,"8510 Painter Ave, Whittier, CA 90602, United States",33.9606595,-118.0341669
90602,Money Mart,"8806 Painter Ave #4, Whittier, CA 90602, United States",33.9577079,-118.0378154
90604,JMS Cash Service,"15638 Leffingwell Rd, Whittier, CA 90604, United States",33.9302291,-117.9952078
90605,Auto Title Loans: Cash 4 You Plus,"13345 Telegraph Rd ste j, Whittier, CA 90605, United States",33.941477,-118.0468322
90605,Advance America,"13423 Telegraph Rd, Whittier, CA 90605, United States",33.940704,-118.04461
90605,Speedy Cash,"13545 Florence Ave, Whittier, CA 90605, United States",33.9369887,-118.0423429
90606,TitleMax Title Loans,"11116 Washington Blvd, Whittier, CA 90606, United States",33.9721572,-118.0734942
90606,Continental Currency Services,"11515 Washington Blvd, Whittier, CA 90606, United States",33.9710996,-118.0659466
90620,Advance America,"6965 La Palma Ave, Buena Park, CA 90620, United States",33.84741,-118.012
90620,City Cash Services,"7665 Knott Ave, Buena Park, CA 90620, United States",33.851296,-118.0116322
90621,Cambio Plus Check Cashing,"6136 Beach Blvd, Buena Park, CA 90621, United States",33.8713203,-117.9980344
90621,Sunshine Check & Title Loans - LoanMart Buena Park,"7301 Orangethorpe Ave, Buena Park, CA 90621, United States",33.8593231,-118.0057501
90621,City Cash Services,"8214 Commonwealth Ave, Buena Park, CA 90621, United States",33.8694992,-117.9899935
90630,Check Into Cash,"5008 Ball Rd, Cypress, CA 90630, United States",33.8164708,-118.0452748
90630,Check Into Cash,"6932 Katella Ave, Cypress, CA 90630, United States",33.802596,-118.010606
90631,Advance America,"1502 W Whittier Blvd, La Habra, CA 90631, United States",33.93906,-117.9627
90631,La Habra Check Cashing,"1506 W Whittier Blvd, La Habra, CA 90631, United States",33.9390164,-117.9627817
90631,OneMain Financial,"1541 W Whittier Blvd, La Habra, CA 90631, United States",33.9402022,-117.9634702
90631,Montana Capital Car Title Loans,"1560 E La Habra Blvd, La Habra, CA 90631, United States",33.931867,-117.9294343
90631,ACE Cash Express,"1571 W Whittier Blvd, La Habra, CA 90631, United States",33.9401617,-117.9636105
90631,Fast Auto Loans Title Loans,"1951 W La Habra Blvd, La Habra, CA 90631, United States",33.9321281,-117.9672455
90631,Check `n Go,"2030 W La Habra Blvd, La Habra, CA 90631, United States",33.931441,-117.9684318
90631,"Fast Auto Loans, Inc.","251 W Whittier Blvd, La Habra, CA 90631, United States",33.9393697,-117.9480739
90631,ABC Check Cashing & Payday Loans,"312 N Harbor Blvd, La Habra, CA 90631, United States",33.934128,-117.9325217
90631,DolEx Dollar Express,"424 W La Habra Blvd, La Habra, CA 90631, United States",33.9314874,-117.9500835
90631,Montana Capital Car Title Loans,"506 E La Habra Blvd, La Habra, CA 90631, United States",33.931736,-117.9405134
90631,La Habra Loan And Jewelry,"620 E Whittier Blvd, La Habra, CA 90631, United States",33.9387724,-117.9395482
90638,Speed Check Cashing,"12226 La Mirada Blvd, La Mirada, CA 90638, United States",33.9190938,-118.0105522
90638,MVP Car Title Loan La Mirada,"13520 Raceland Rd, La Mirada, CA 90638, United States",33.9081936,-118.0260878
90638,Check `n Go,"14557 East, Telegraph Rd, La Mirada, CA 90638, United States",33.923565,-118.0217786
90638,Swift Title Loans,"15021 Imperial Hwy, La Mirada, CA 90638, United States",33.917345,-118.0106288
90638,Check Into Cash,"15735 Imperial Hwy, La Mirada, CA 90638, United States",33.918035,-117.99583
90638,Trt Home Loans,"15744 Imperial Hwy, La Mirada, CA 90638, United States",33.9168016,-117.9950502
90640,ACE Cash Express,"1001 W Whittier Blvd ste a, Montebello, CA 90640, United States",34.010468,-118.111113
90640,Check `n Go,"1026 W Beverly Blvd, Montebello, CA 90640, United States",34.0181786,-118.1089879
90640,Oportun,"1201 W Whittier Blvd, Montebello, CA 90640, United States",34.0097316,-118.1136285
90640,ACE Cash Express - ATM,"2900 W Beverly Blvd ste a ste a, Montebello, CA 90640, United States",34.022884,-118.1343149
90640,Advance America,"518 N Montebello Blvd, Montebello, CA 90640, United States",34.01795,-118.105415
90650,Payday Express,"10649 Imperial Hwy, Norwalk, CA 90650, United States",33.9175486,-118.1064991
90650,Cash In Flash,"10948 Imperial Hwy #101, Norwalk, CA 90650, United States",33.9167176,-118.0998443
90650,Check Into Cash,"11479 Rosecrans Ave, Norwalk, CA 90650, United States",33.902792,-118.08861
90650,Oportun,"11660 Firestone Blvd E, Norwalk, CA 90650, United States",33.9134259,-118.0848321
90650,Payday Loans,"11755 Imperial Hwy, Norwalk, CA 90650, United States",33.9172905,-118.0821309
90650,ACE Cash Express,"11755 Imperial Hwy, Norwalk, CA 90650, United States",33.917321,-118.082096
90650,RPM Lenders Title Loans,"12801 Norwalk Blvd, Norwalk, CA 90650, United States",33.9141822,-118.0729163
90650,Continental Currency Services,"12854 Pioneer Blvd, Norwalk, CA 90650, United States",33.9127076,-118.0812643
90650,Advance America,"13937 Pioneer Blvd, Norwalk, CA 90650, United States",33.904358,-118.08322
90660,DolEx Dollar Express,"6752 Passons Blvd, Pico Rivera, CA 90660, United States",33.9798873,-118.0889708
90660,Speedy Cash,"8701 E Washington Blvd, Pico Rivera, CA 90660, United States",33.9855285,-118.1007753
90660,Cash & Go,"8745 Whittier Blvd #107, Pico Rivera, CA 90660, United States",34.002278,-118.085541
90660,Check Into Cash,"8832 Whittier Blvd, Pico Rivera, CA 90660, United States",34.018612,-118.110767
90660,Check `n Go,"8986 Washington Blvd, Pico Rivera, CA 90660, United States",33.9819894,-118.098547
90660,DolEx Dollar Express,"9448 Whittier Blvd, Pico Rivera, CA 90660, United States",33.9976577,-118.0766372
90670,Oportun,"10531 Carmenita Rd S, Santa Fe Springs, CA 90670, United States",33.9392732,-118.0484382
90680,Speedy Cash,"10972 Beach Blvd, Stanton, CA 90680, United States",33.8033086,-117.9927899
90680,Money Mart,"12001 Beach Blvd, Stanton, CA 90680, United States",33.7881668,-117.9935604
90680,Check `n Go,"12880 Beach Blvd C, Stanton, CA 90680, United States",33.7741532,-117.9920285
90680,Quicken Cash,"7910 Katella Ave, Stanton, CA 90680, United States",33.8018208,-117.9950149
90701,Get Auto Car Title Loans Artesia Ca,"17721 Norwalk Blvd # 65, Artesia, CA 90701, United States",33.8695544,-118.0741244
90703,OneMain Financial,"13251 South St, Cerritos, CA 90703, United States",33.8600386,-118.0491052
90706,Continental Currency Services,"13542 Lakewood Blvd #F, Bellflower, CA 90706, United States",33.9039823,-118.1426247
90706,Payday Advance,"14217 Bellflower Blvd, Bellflower, CA 90706, United States",33.9024584,-118.1258634
90706,Check Into Cash,"14341 Clark Ave, Bellflower, CA 90706, United States",33.902574,-118.135196
90706,Montana Capital Car Title Loans,"14830 Lakewood Blvd, Bellflower, CA 90706, United States",33.898451,-118.1425543
90706,Bradford Funding Group,"15545 Bellflower Blvd # D, Bellflower, CA 90706, United States",33.8917803,-118.1257166
90706,Money Mart,"15790 Bellflower Blvd, Bellflower, CA 90706, United States",33.8897425,-118.1248715
90706,Car Title Loans California,"16804 Bellflower Blvd #103, Bellflower, CA 90706, United States",33.8818814,-118.1249318
90706,ACE Cash Express,"9000 Artesia Blvd, Bellflower, CA 90706, United States",33.874388,-118.142377
90706,Advance America,"9020 Alondra Blvd, Bellflower, CA 90706, United States",33.889065,-118.141335
90706,Pacific Cash Advance,"9206 Alondra Blvd, Bellflower, CA 90706, United States",33.8885907,-118.1379799
90706,5 Star Car Title Loans,"9561 Artesia Blvd, Bellflower, CA 90706, United States",33.8750176,-118.1296369
90710,ACE Cash Express,"1333 Pacific Coast Hwy, Harbor City, CA 90710, United States",33.789671,-118.300273
90712,L.A. Cash Advance,"2712 E Del Amo Blvd, Lakewood, CA 90712, United States",33.846034,-118.159404
90712,Check `n Go,"4073 Hardwick St, Lakewood, CA 90712, United States",33.851754,-118.1442044
90713,Speedy Cash,"5445 South St, Lakewood, CA 90713, United States",33.8605727,-118.1263845
90713,E Z Check Advance,"5515 Del Amo Blvd, Lakewood, CA 90713, United States",33.8475185,-118.1246003
90713,Check Into Cash,"5539 Woodruff Ave, Lakewood, CA 90713, United States",33.857317,-118.117538
90713,OneMain Financial,"5909 South St, Lakewood, CA 90713, United States",33.8590343,-118.1167026
90715,TitleMax Title Loans,"11545 E Carson St, Lakewood, CA 90715, United States",33.8316909,-118.0869874
90716,Gardens Gold & Loan,"11858 E Carson St, Hawaiian Gardens, CA 90716, United States",33.8312836,-118.0796574
90716,5 Star Car Title Loans,"12016 E Carson St, Hawaiian Gardens, CA 90716, United States",33.83115,-118.075746
90716,Check Into Cash,"12105 E Carson St ste b, Hawaiian Gardens, CA 90716, United States",33.8321016,-118.0743166
90716,Oportun,"12177 E Carson St, Hawaiian Gardens, CA 90716, United States",33.8317314,-118.072848
90716,Car Cash Loans,"12322 E Carson St, Hawaiian Gardens, CA 90716, United States",33.8313038,-118.069047
90720,Payday Money Centers- Los Alamitos,"3259 Katella Ave, Los Alamitos, CA 90720, United States",33.803557,-118.075448
90723,Alondra QuikCheck,"15920 Downey Ave STE A-5, Paramount, CA 90723, United States",33.888467,-118.15109
90723,Lendmark Financial Services LLC,"7902 Alondra Blvd, Paramount, CA 90723, United States",33.8889294,-118.161204
90731,ACE Cash Express,"1330 S Pacific Ave A, San Pedro, CA 90731, United States",33.731852,-118.287695
90731,Gaffey Check Cashing,"324 S Gaffey St, San Pedro, CA 90731, United States",33.7411126,-118.2921103
90731,DolEx Dollar Express,"500 S Pacific Ave, San Pedro, CA 90731, United States",33.7394636,-118.2877508
90731,Oportun,"699 S Gaffey St, San Pedro, CA 90731, United States",33.7380413,-118.2926528
90731,DolEx Dollar Express,"816 S Pacific Ave, San Pedro, CA 90731, United States",33.736378,-118.287552
90731,Speedy Cash,"904 S Gaffey St, San Pedro, CA 90731, United States",33.7356921,-118.2921737
90744,ACE Cash Express,"1010 W Anaheim St, Wilmington, CA 90744, United States",33.77915,-118.27438
90744,ACE Cash Express,"104 W Anaheim St ste a, Wilmington, CA 90744, United States",33.779777,-118.262677
90744,Oportun,"128 W Pacific Coast Hwy, Wilmington, CA 90744, United States",33.790705,-118.264234
90744,Speedy Cash,"229 W Anaheim St, Wilmington, CA 90744, United States",33.7803013,-118.2647002
90744,Fast Auto and Payday Loans,"350 W Pacific Coast Hwy A, Wilmington, CA 90744, United States",33.7908603,-118.2665164
90744,TitleMax Title Loans,"580 W Pacific Coast Hwy, Wilmington, CA 90744, United States",33.790637,-118.2695147
90745,Check `n Go,"22005 S Avalon Blvd Suite F, Carson, CA 90745, United States",33.827624,-118.2642065
90745,Get Auto Car Title Loans Carson Ca,"22718 Anchor Ave, Carson, CA 90745, United States",33.8198742,-118.2652426
90745,Check Into Cash,"23561 S Avalon Blvd, Carson, CA 90745, United States",33.811283,-118.264729
90745,Advance America,"280 E Sepulveda Blvd, Carson, CA 90745, United States",33.8075201,-118.2714541
90746,OneMain Financial,"17401 S Avalon Blvd d, Carson, CA 90746, United States",33.8726012,-118.2664412
90746,Pacific Cash Advance,"17952 S Avalon Blvd, Carson, CA 90746, United States",33.8671939,-118.2654569
90746,Payday Advance,"20771 S Avalon Blvd, Carson, CA 90746, United States",33.8417596,-118.2632114
90746,ACE Cash Express,"603 E University Dr C, Carson, CA 90746, United States",33.85853,-118.265699
90802,MVP Car Title Loan,"111 W Ocean Blvd F4, Long Beach, CA 90802, United States",33.7674741,-118.1931112
90804,ACE Cash Express,"3401 E Anaheim St, Long Beach, CA 90804, United States",33.782744,-118.15218
90804,Payday Express,"3747 E Anaheim St, Long Beach, CA 90804, United States",33.7830218,-118.1483387
90804,Long Beach Auto Title Loans,"4510 Pacific Coast Hwy UNIT 407, Long Beach, CA 90804, United States",33.787424,-118.140809
90805,Moneytree,"2185 E South St, Long Beach, CA 90805, United States",33.8613374,-118.166598
90805,Continental Currency Services,"3461 E Artesia Blvd, Long Beach, CA 90805, United States",33.875673,-118.1527709
90805,Andalucia Lending Institution Inc,"4647 N Long Beach Blvd # B4, Long Beach, CA 90805, United States",33.84181,-118.1922788
90805,Community Check Cashing,"5425 Atlantic Ave, Long Beach, CA 90805, United States",33.854772,-118.1853471
90805,DolEx Dollar Express,"5575-a, Atlantic Ave, Long Beach, CA 90805, United States",33.8575503,-118.1852671
90805,ACE Cash Express,"6583 Atlantic Ave #110, Long Beach, CA 90805, United States",33.873813,-118.187015
90806,Any Kind Check Cashing,"1001 E Pacific Coast Hwy, Long Beach, CA 90806, United States",33.7904712,-118.1799657
90806,Money Mart,"2295 Long Beach Blvd suite b, Long Beach, CA 90806, United States",33.7986726,-118.1897861
90806,ACE Cash Express,"300 W Pacific Coast Hwy, Long Beach, CA 90806, United States",33.789698,-118.195361
90807,Lendmark Financial Services LLC,"2296 E Carson St, Long Beach, CA 90807, United States",33.8312561,-118.1644495
90807,Fast Money Car Title Loans,"3451 Cherry Ave, Long Beach, CA 90807, United States",33.8199172,-118.167848
90807,Fast Money Car Title Loans,"3801 Cherry Ave, Long Beach, CA 90807, United States",33.8270621,-118.1679544
90807,Payday Advance,"4200 Atlantic Ave, Long Beach, CA 90807, United States",33.832866,-118.1846974
90807,Oportun,"4700 Cherry Ave, Long Beach, CA 90807, United States",33.844476,-118.1669402
90813,A Check Cashing,"1006 E Anaheim St, Long Beach, CA 90813, United States",33.782306,-118.18033
90813,Continental Currency Services,"1301 Long Beach Blvd, Long Beach, CA 90813, United States",33.7827424,-118.1898942
90813,Check `n Go,"1706 Long Beach Blvd, Long Beach, CA 90813, United States",33.7883556,-118.1888317
90813,Continental Currency Services,"335 E 7th St, Long Beach, CA 90813, United States",33.7754841,-118.1884402
90813,Amigo Check Cashing,"400 E Anaheim St, Long Beach, CA 90813, United States",33.7819229,-118.187584
90813,Oportun,"730 Long Beach Blvd suite g, Long Beach, CA 90813, United States",33.7761076,-118.1889325
90814,Get Auto Title Loans Long Beach CA,"2436 E 4th St #1008, Long Beach, CA 90814, United States",33.7715697,-118.1622169
90815,Dollar Loan Center,"2004 Ximeno Ave, Long Beach, CA 90815, United States",33.791945,-118.1385315
90815,Instant Payday Loans,"5000 E Spring St #300, Long Beach, CA 90815, United States",33.8099554,-118.1354156
90831,OneMain Financial,"1 World Trade Center Ste 630, Long Beach, CA 90831, United States",33.76792,-118.199845
91001,Mundo Check Cashing #1,"2186 N Fair Oaks Ave, Altadena, CA 91001, United States",34.1834313,-118.1502329
91006,Jims Check Cashing,"151 E Duarte Rd, Arcadia, CA 91006, United States",34.1306997,-118.0258133
91010,Check `n Go,"1104 E Huntington Dr, Irwindale, CA 91010, United States",34.1391831,-117.981691
91010,Check Into Cash,"1229 E Huntington Dr, Duarte, CA 91010, United States",34.140743,-117.977855
91011,HouseAmerica Financial,"1010 Foothill Blvd, La Ca√±ada Flintridge, CA 91011, United States",34.2043756,-118.2006274
91016,Fast Auto and Payday Loans,"301 Huntington Dr, Monrovia, CA 91016, United States",34.1406304,-118.0054797
91016,Monrovia Financial Center,"412 W Foothill Blvd, Monrovia, CA 91016, United States",34.1509212,-118.0085074
91101,PennyMac Loan Services,"251 South Lake Avenue Sixth Floor, Pasadena, CA 91101, United States",34.1415544,-118.1329777
91101,Payday Advance,"641 N Lake Ave, Pasadena, CA 91101, United States",34.1570521,-118.132634
91104,Oportun,"1281 N Lake Ave, Pasadena, CA 91104, United States",34.1677693,-118.1332421
91104,Continental Currency Services,"1298 N Lake Ave, Pasadena, CA 91104, United States",34.1683081,-118.1319604
91104,Have Cash Advance,"1357 N Lake Ave, Pasadena, CA 91104, United States",34.169283,-118.1324992
91104,Continental Currency Services,"447 E Orange Grove Blvd, Pasadena, CA 91104, United States",34.1583736,-118.1409296
91105,Check `n Go,"143 W California Blvd, Pasadena, CA 91105, United States",34.1365169,-118.1527797
91105,Crown City Loan & Jewelry,"65 E Colorado Blvd, Pasadena, CA 91105, United States",34.145962,-118.1490442
91106,Lendmark Financial Services LLC,"1272 E Colorado Blvd, Pasadena, CA 91106, United States",34.1456035,-118.124246
91106,Advance America,"950 E Colorado Blvd Unit 102, Pasadena, CA 91106, United States",34.145746,-118.130646
91107,Montana Capital Car Title Loans,"279 S Rosemead Blvd, Pasadena, CA 91107, United States",34.1415349,-118.0737777
91107,In & Out Cash,"328 S Rosemead Blvd, Pasadena, CA 91107, United States",34.1408649,-118.0730732
91107,Check Into Cash,"3683 E Colorado Blvd, Pasadena, CA 91107, United States",34.146663,-118.07395
91201,Check Into Cash,"625 E Colorado St C, Glendale, CA 91201, United States",34.143037,-118.247316
91201,ACE Cash Express,"6344 San Fernando Rd, Glendale, CA 91201, United States",34.165993,-118.28774
91203,KWIK CASH .,"505 N Brand Blvd 16th floor, Glendale, CA 91203, United States",34.1532428,-118.2554946
91203,OneMain Financial,"600 N Brand Blvd, Glendale, CA 91203, United States",34.1548325,-118.2547651
91203,Paramount Loan Services,"620 N Brand Blvd, Glendale, CA 91203, United States",34.1557021,-118.2545711
91204,Continental Currency Services,"1023 S Brand Blvd # B, Glendale, CA 91204, United States",34.1336388,-118.2552002
91205,get your faster payday loans,"1125 E Broadway, Glendale, CA 91205, United States",34.1464943,-118.2406715
91301,PennyMac Loan Services,"29903 Agoura Rd, Agoura Hills, CA 91301, United States",34.146386,-118.77613
91301,101 Auto Funding,"5737 Kanan Rd, Agoura Hills, CA 91301, United States",34.1555359,-118.7580541
91302,Cashstand,"26560 Agoura Rd UNIT 110, Calabasas, CA 91302, United States",34.1426535,-118.7020771
91303,Speedy Cash,"7204 Canoga Ave, Canoga Park, CA 91303, United States",34.2014339,-118.5974019
91303,Topanga Check Cashing Services,"7239 Topanga Canyon Blvd, Canoga Park, CA 91303, United States",34.202237,-118.6061851
91304,OneMain Financial,"8395 Topanga Canyon Blvd, Canoga Park, CA 91304, United States",34.221618,-118.6067521
91304,Cash Plus,"9015 De Soto Ave, Canoga Park, CA 91304, United States",34.2342348,-118.5889291
91306,DolEx Dollar Express,"19755 Vanowen St ste a 24, Winnetka, CA 91306, United States",34.194331,-118.564341
91306,Oportun,"19755 Vanowen St, Winnetka, CA 91306, United States",34.1942077,-118.5643294
91306,ACE Cash Express,"20115 Saticoy St, Winnetka, CA 91306, United States",34.20934,-118.5717
91320,BCU,"1700 Rancho Conejo Blvd, Newbury Park, CA 91320, United States",34.2062194,-118.9300075
91320,MULTISERVICIOS LAS AMERICAS,"2454 W Hillcrest Dr #104, Newbury Park, CA 91320, United States",34.186095,-118.929134
91320,Erik Lundring - Thrivent,"3255 Old Conejo Rd #201, Thousand Oaks, CA 91320, United States",34.1912352,-118.9441764
91320,Capstone Direct | Home Loans Thousand Oaks,"3285 Old Conejo Rd, Newbury Park, CA 91320, United States",34.19088,-118.944657
91320,Cash N More,"587 N Ventu Park Rd # E, Newbury Park, CA 91320, United States",34.1872523,-118.9123381
91321,Advance America,"23354 Lyons Ave, Newhall, CA 91321, United States",34.37931,-118.542175
91321,OneMain Financial,"24152 Lyons Ave, Santa Clarita, CA 91321, United States",34.377707,-118.5566818
91324,Check Into Cash,"18539 Roscoe Blvd, Northridge, CA 91324, United States",34.221142,-118.537484
91324,Check `n Go,"19240 Nordhoff St, Northridge, CA 91324, United States",34.2350409,-118.5522095
91324,ACE Cash Express,"8715 Corbin Ave, Northridge, CA 91324, United States",34.22864,-118.56255
91325,Money Mart,"18455 Roscoe Blvd, Northridge, CA 91325, United States",34.2210004,-118.5355901
91331,Continental Currency Services,"12773 Van Nuys Blvd, Pacoima, CA 91331, United States",34.2750342,-118.4125222
91331,Speedy Cash,"13263 Van Nuys Blvd, Pacoima, CA 91331, United States",34.2661172,-118.4223992
91331,TitleMax Title Loans,"8979 Woodman Ave Suite 105, Arleta, CA 91331, United States",34.232622,-118.4388966
91331,Advance America,"9063 Woodman Ave, Arleta, CA 91331, United States",34.234264,-118.4403
91331,Fast Auto and Payday Loans,"9080 Woodman Ave, Arleta, CA 91331, United States",34.2350777,-118.4398628
91331,Oportun,"9710 Woodman Ave, Arleta, CA 91331, United States",34.2476776,-118.4460743
91331,The Check Cashing Place,"9767 Laurel Canyon Blvd, Pacoima, CA 91331, United States",34.2471689,-118.420198
91331,Oportun,"9801 Laurel Canyon Blvd, Pacoima, CA 91331, United States",34.2470694,-118.4216373
91331,Check `n Go,"Hansen Hills, CA 91331, United States",34.2465598,-118.4463583
91335,Cash It Quick,"18503 Victory Blvd, Reseda, CA 91335, United States",34.1870896,-118.536555
91335,TitleMax Title Loans,"18601 Sherman Way Suite H, Reseda, CA 91335, United States",34.201333,-118.5391468
91335,Advance America,"19315-F, Saticoy St, Reseda, CA 91335, United States",34.209404,-118.5548
91335,Check Into Cash,"19638 Sherman Way, Reseda, CA 91335, United States",34.200663,-118.561295
91335,Speedy Cash,"6740 Reseda Blvd, Reseda, CA 91335, United States",34.1933014,-118.535842
91335,Payday Advance,"7151 Reseda Blvd, Reseda, CA 91335, United States",34.2007043,-118.5362278
91335,ACE Cash Express,"7160 Reseda Blvd, Reseda, CA 91335, United States",34.20094,-118.53584
91335,Oportun,"7550 Tampa Ave Unit C, Reseda, CA 91335, United States",34.2080333,-118.5530695
91340,ACE Cash Express,"1013 Truman St., San Fernando, CA 91340, United States",34.282896,-118.4399
91340,Lendmark Financial Services LLC,"1129 San Fernando Rd, San Fernando, CA 91340, United States",34.2839294,-118.4423678
91340,San Fernando Loan Co Inc,"1131 San Fernando Rd, San Fernando, CA 91340, United States",34.283873,-118.442319
91340,Oportun,"2040 Glenoaks Blvd, San Fernando, CA 91340, United States",34.2985453,-118.4388139
91340,Oportun,"315 San Fernando Rd, San Fernando, CA 91340, United States",34.2843818,-118.4447536
91340,Advance America,"55 N Maclay Ave, San Fernando, CA 91340, United States",34.284473,-118.440895
91340,Oportun,"737 S Workman St, San Fernando, CA 91340, United States",34.2823128,-118.4517301
91340,DolEx Dollar Express,"902 San Fernando Rd, San Fernando, CA 91340, United States",34.2816131,-118.4404475
91342,California Check Cashing Stores,"11980 Foothill Blvd, Sylmar, CA 91342, United States",34.2758879,-118.3969798
91342,OneMain Financial,"12669 Glenoaks Blvd, Sylmar, CA 91342, United States",34.2995585,-118.4411761
91342,ACE Cash Express,"13711 Foothill Blvd Unit C, Unit C, Unit C, Unit C, Sylmar, CA 91342, United States",34.30912,-118.43189
91343,Oportun,"8320 Sepulveda Blvd, North Hills, CA 91343, United States",34.2223761,-118.467103
91343,E Z Collateral & Loan,"8700 Sepulveda Blvd, North Hills, CA 91343, United States",34.2284314,-118.4674646
91343,DolEx Dollar Express,"8706 Sepulveda Blvd, North Hills, CA 91343, United States",34.2286778,-118.4671612
91343,Check Into Cash,"9046 Sepulveda Blvd Suite F-4, North Hills, CA 91343, United States",34.2348222,-118.4659318
91344,C R Financial Llc,"11057 Balboa Blvd, Granada Hills, CA 91344, United States",34.2716094,-118.5026598
91345,Speedy Cash,"10223 Sepulveda Blvd, Mission Hills, CA 91345, United States",34.2561523,-118.4677595
91345,1800TitleLoan,"15416 Devonshire St #100, Mission Hills, CA 91345, United States",34.2571646,-118.4681364
91345,Payday Plus,"15416 Devonshire St, Mission Hills, CA 91345, United States",34.2571646,-118.4681364
91351,Check Into Cash,"18553 Soledad Canyon Rd, Santa Clarita, CA 91351, United States",34.4174128,-118.4571175
91351,Advance America,"19357 Soledad Canyon Rd, Canyon Country, CA 91351, United States",34.41705,-118.47414
91352,Platinum Collateral Loans Corp.,"12041 Roscoe Blvd, Sun Valley, CA 91352, United States",34.2218625,-118.395669
91352,Continental Currency Services,"8026 Vineland Ave, Sun Valley, CA 91352, United States",34.2165196,-118.3700783
91352,Check `n Go,"8305 Laurel Canyon Blvd, Sun Valley, CA 91352, United States",34.2218348,-118.3978995
91352,Golden Check Cashing Inc.,"8716 Sunland Blvd, Sun Valley, CA 91352, United States",34.22822,-118.365802
91355,Montana Capital Car Title Loans,"25155 Avenue Stanford, Santa Clarita, CA 91355, United States",34.4361087,-118.5771537
91356,Jewish Free Loan Association,"5429 Lindley Ave, Tarzana, CA 91356, United States",34.1693588,-118.5281269
91356,Payday Advance,"5585 Reseda Blvd #102, Tarzana, CA 91356, United States",34.1722193,-118.5364929
91360,Heritage Commercial Funding,"365 E Avenida De Los Arboles, Thousand Oaks, CA 91360, United States",34.2178349,-118.8699619
91360,CONEJO CHECK CASHING,"707 Thousand Oaks Blvd #7, Thousand Oaks, CA 91360, United States",34.1798604,-118.8652179
91361,PennyMac Loan Services,"3043 Townsgate Rd STE 200, Westlake Village, CA 91361, United States",34.1521651,-118.819389
91361,Agoura Hills Car Title Loans Inc,"30941 Agoura Rd, Westlake Village, CA 91361, United States",34.1455782,-118.7953664
91361,Capital Source Finance LLC,"31111 Agoura Rd, Westlake Village, CA 91361, United States",34.1461003,-118.7985895
91362,PennyMac Loan Services,"112 Lakeview Canyon Rd #130, Thousand Oaks, CA 91362, United States",34.1569357,-118.8156861
91362,West Gem's Loan & Pawn Brokers,"2539 Thousand Oaks Blvd, Thousand Oaks, CA 91362, United States",34.173402,-118.8410844
91362,Option Funding Inc,"5655 Lindero Canyon Rd, Westlake Village, CA 91362, United States",34.1541067,-118.8000885
91364,Woodland Hills Pawn shop,"20930 Ventura Blvd, Woodland Hills, CA 91364, United States",34.1662846,-118.5894245
91364,Woodland Hills Mortgage Corporation,"21777 Ventura Blvd #211, Woodland Hills, CA 91364, United States",34.1691293,-118.6020758
91364,5 Star Car Title Loans,"21777 Ventura Blvd UNIT 271, Woodland Hills, CA 91364, United States",34.1691694,-118.6021353
91367,ForwardLine,"21700 W Oxnard St #1400, Woodland Hills, CA 91367, United States",34.1788784,-118.6020803
91367,Express Payday Loans,"21806 Burbank Blvd, Woodland Hills, CA 91367, United States",34.1737122,-118.6041997
91367,Premier Financial,"22020 Clarendon St #201, Woodland Hills, CA 91367, United States",34.1694773,-118.6067985
91387,SCV Pawn Brokers Inc.,"18360 Soledad Canyon Rd, Canyon Country, CA 91387, United States",34.416153,-118.453426
91401,DolEx Dollar Express,"14444 Victory Blvd, Van Nuys, CA 91401, United States",34.186495,-118.44814
91402,OneMain Financial,"14417 Roscoe Blvd B, Panorama City, CA 91402, United States",34.2219332,-118.4472547
91402,Oportun,"14620 Parthenia St, Panorama City, CA 91402, United States",34.226277,-118.450831
91402,TitleMax Title Loans,"15237 Roscoe Blvd, Panorama City, CA 91402, United States",34.2218253,-118.4646822
91402,Speedy Cash,"7855 Van Nuys Blvd, Panorama City, CA 91402, United States",34.2136901,-118.4491806
91402,ACE Cash Express,"8318 Van Nuys Blvd, Panorama City, CA 91402, United States",34.222,-118.44845
91402,Oportun,"8526 Van Nuys Blvd, Panorama City, CA 91402, United States",34.2255477,-118.4486648
91402,Continental Currency Services,"9100 Van Nuys Blvd, Panorama City, CA 91402, United States",34.2355651,-118.4500545
91403,Sherman Oaks - Los Angeles Check Cashing,"15030 Ventura Blvd, Sherman Oaks, CA 91403, United States",34.1523723,-118.4607954
91403,LS Financing Inc,"4645 Van Nuys Blvd #202, Sherman Oaks, CA 91403, United States",34.1559614,-118.4490527
91403,"Get Me Funds, Inc","5160 Van Nuys Blvd #583, Sherman Oaks, CA 91403, United States",34.1646305,-118.4480795
91405,Speedy Cash,"13722 Sherman Way, Van Nuys, CA 91405, United States",34.2008315,-118.4321889
91405,Cash Plus,"14480 Sherman Way, Van Nuys, CA 91405, United States",34.200962,-118.448431
91405,ACE Cash Express,"14526 Sherman Way, Van Nuys, CA 91405, United States",34.201024,-118.449714
91405,Oportun,"15226 Vanowen St, Van Nuys, CA 91405, United States",34.1935943,-118.46504
91405,PLS Check Cashing Store,"6801 Van Nuys, CA 91405, United States",34.1940649,-118.44899
91405,DolEx Dollar Express,"6801 Woodman Ave #A, Van Nuys, CA 91405, United States",34.194361,-118.431692
91405,Fox Title Loans- Car Title Loans in Van Nuys,"7324 Sepulveda Blvd Suite B, Van Nuys, CA 91405, United States",34.2038074,-118.4659734
91405,Advance America,"7403 Van Nuys Blvd, Van Nuys, CA 91405, United States",34.205067,-118.449265
91406,800LoanMart Headquarters,"15400 Sherman Way UNIT 170, Van Nuys, CA 91406, United States",34.2009322,-118.4683529
91406,Jet Cash Payday Loans & Advance Loans,"16447 Vanowen St, Van Nuys, CA 91406, United States",34.1941359,-118.491832
91406,Speedy Cash,"7201 Balboa Blvd, Van Nuys, CA 91406, United States",34.2014439,-118.5015661
91411,OneMain Financial,"6265 Sepulveda Blvd, Van Nuys, CA 91411, United States",34.1843151,-118.4667316
91436,Payday Loan Online,"16161 Ventura Blvd, Encino, CA 91436, United States",34.1569339,-118.4855295
91504,Grupo Estrella,"2929 Floyd St, Burbank, CA 91504, United States",34.2004669,-118.343364
91505,Money Mart,"2501 W Victory Blvd B, Burbank, CA 91505, United States",34.1849513,-118.3387393
91505,Aztec Financial,"2624 W Magnolia Blvd, Burbank, CA 91505, United States",34.171175,-118.3366504
91506,"Payday, Inc.","1804 W Burbank Blvd, Burbank, CA 91506, United States",34.1810215,-118.3305682
91601,California Check Cashing Stores,"11002 W Magnolia Blvd ste a, North Hollywood, CA 91601, United States",34.1646395,-118.3708281
91601,Advance America,"5160 Vineland Ave #113, North Hollywood, CA 91601, United States",34.164165,-118.36992
91601,Montana Capital Car Title Loans,"5653 Cahuenga Blvd, North Hollywood, CA 91601, United States",34.1736905,-118.3618141
91604,Moo Loans LLC,"3760 Cahuenga Blvd #110, Studio City, CA 91604, United States",34.1363812,-118.362165
91605,Check Cash Payday Loan,"12065 Hart St, North Hollywood, CA 91605, United States",34.1977095,-118.3960673
91605,Montana Capital Car Title Loans,"12114 Sherman Way, North Hollywood, CA 91605, United States",34.2002138,-118.3971546
91605,Oportun,"12727 Sherman Way, North Hollywood, CA 91605, United States",34.2024463,-118.4106402
91605,ACE Cash Express,"12801 Sherman Way, North Hollywood, CA 91605, United States",34.201433,-118.411687
91605,California Check Cashing Stores,"6801 Lankershim Blvd #107, North Hollywood, CA 91605, United States",34.1940868,-118.3882826
91605,Doc's Cash Services,"7945 Laurel Canyon Blvd, North Hollywood, CA 91605, United States",34.2151369,-118.396782
91605,ACE Cash Express,"8035 Lankershim Blvd, North Hollywood, CA 91605, United States",34.216652,-118.388032
91605,Speedy Cash,"8247 Laurel Canyon Blvd, North Hollywood, CA 91605, United States",34.2209611,-118.3968478
91606,Continental Currency Services,"12100 Victory Blvd, North Hollywood, CA 91606, United States",34.1863679,-118.3967084
91606,ACE Cash Express,"6050 Lankershim Blvd B, North Hollywood, CA 91606, United States",34.181431,-118.384307
91606,OneMain Financial,"6106 Lankershim Blvd, North Hollywood, CA 91606, United States",34.1818388,-118.3840065
91606,Easy Loan Inc.,"6442 Coldwater Canyon Ave UNIT 109, North Hollywood, CA 91606, United States",34.186986,-118.4121571
91606,"Moo Loans, Car Title Loans North Hollywood","6631 Lankershim Blvd, North Hollywood, CA 91606, United States",34.1912594,-118.3881666
91701,Check Into Cash,"8810 Base Line Rd, Rancho Cucamonga, CA 91701, United States",34.1218999,-117.6139163
91702,OneMain Financial,"1121 E Alosta Ave, Azusa, CA 91702, United States",34.1290171,-117.8834276
91702,DolEx Dollar Express,"617 E Arrow Hwy, Azusa, CA 91702, United States",34.1073654,-117.898294
91702,ACE Cash Express,"891 S Citrus Ave, Azusa, CA 91702, United States",34.107003,-117.890769
91706,Oportun,"14433 Ramona Blvd, Baldwin Park, CA 91706, United States",34.0886436,-117.9591315
91706,Check `n Go,"14519 Ramona Blvd Suite F7, Baldwin Park, CA 91706, United States",34.0878787,-117.9580118
91706,Advance America,"4000 La Rica Ave Unit A, Baldwin Park, CA 91706, United States",34.085617,-117.966774
91706,Payday Advance,"14135 Francisquito Ave #102, Baldwin Park, CA 91706, United States",34.0635164,-117.9677828
91709,Swift Title Loans,"3018 Galloping Hills Rd, Chino Hills, CA 91709, United States",33.9893307,-117.7394652
91709,Check `n Go,"4200 Chino Hills Pkwy #855, Chino Hills, CA 91709, United States",33.9843963,-117.7140666
91709,Fairway Independent Mortgage,"5861 Pine Ave, Chino Hills, CA 91709, United States",33.9472365,-117.6758206
91710,MLA Payday Advance,"12150 Ramona Ave # 9, Chino, CA 91710, United States",34.0326796,-117.7076424
91710,Graham-Newman Title Loans - LoanMart Chino,"12209 Central Ave, Chino, CA 91710, United States",34.0316209,-117.6882514
91710,Oportun,"12375 Central Ave, Chino, CA 91710, United States",34.0287361,-117.6879488
91710,Montana Capital Car Title Loans,"12930 Central Ave, Chino, CA 91710, United States",34.0185046,-117.6895695
91710,MLA Chino Hills,"14584 Pipeline Ave, Chino, CA 91710, United States",33.9881662,-117.7154831
91710,Cashback Loans,"5275 Riverside Dr, Chino, CA 91710, United States",34.0188502,-117.6898439
91711,Balboa Thrift and Loan,"306 Yale Ave, Claremont, CA 91711, United States",34.0967595,-117.7176059
91711,Aloe Loan Services,"412 Auto Center Dr, Claremont, CA 91711, United States",34.0798746,-117.7203411
91711,Top Auto Car Loans Claremont Ca,"445 W Foothill Blvd Suite 108 - #9, Claremont, CA 91711, United States",34.1080445,-117.7209448
91722,Check `n Go,"1004 N Citrus Ave, Covina, CA 91722, United States",34.0976955,-117.8899986
91722,Advance America,"1106 N Citrus Ave Ste. A, Covina, CA 91722, United States",34.099857,-117.88983
91722,Oportun,"1375 N Citrus Ave, Covina, CA 91722, United States",34.1047711,-117.8909678
91722,Advance America,"1379 N Citrus Ave, Covina, CA 91722, United States",34.105064,-117.89146
91722,Cashback Loans,"150 W Arrow Hwy, Covina, CA 91722, United States",34.0995001,-117.6532018
91722,Check Into Cash,"517 N Azusa Ave, Covina, CA 91722, United States",34.0894528,-117.9091417
91722,Oportun,"960 W Arrow Hwy, Covina, CA 91722, United States",34.1059952,-117.8708768
91724,"Pacific Loanworks, Inc","461 Grand Ave, Covina, CA 91724, United States",34.091193,-117.872815
91730,Montana Capital Car Title Loans,"10080 Foothill Blvd, Rancho Cucamonga, CA 91730, United States",34.1070135,-117.5850547
91730,Lendmark Financial Services LLC,"11553 Foothill Blvd Suite 104, Rancho Cucamonga, CA 91730, United States",34.105895,-117.553102
91730,Get Auto Car Title Loans Rancho Cucamonga Ca,"7349 Milliken Ave # 140-53, Rancho Cucamonga, CA 91730, United States",34.1202467,-117.5565413
91730,American Check Cashing,"8001 Archibald Ave # B, Rancho Cucamonga, CA 91730, United States",34.1083387,-117.5931716
91730,EZ Fundings,"8577 Haven Ave STE 201, Rancho Cucamonga, CA 91730, United States",34.0978717,-117.5752489
91730,Gold N Loans Title Loans - LoanMart Rancho Cucamonga,"8875 Foothill Blvd Unit 102, Rancho Cucamonga, CA 91730, United States",34.1063229,-117.6115425
91730,Gold N Loans,"8875 Foothill Blvd, Rancho Cucamonga, CA 91730, United States",34.1063453,-117.6115897
91730,Cashback Loans,"9172 Foothill Blvd Ste C, Rancho Cucamonga, CA 91730, United States",34.1069684,-117.6050989
91730,Cash Plus,"9339 Foothill Blvd, Rancho Cucamonga, CA 91730, United States",34.1051567,-117.6008766
91730,Montana Capital Car Title Loans,"9681 Business Center Dr a, Rancho Cucamonga, CA 91730, United States",34.0979285,-117.5937901
91731,Giromex Check Cashing,"10717 Main St, El Monte, CA 91731, United States",34.0757051,-118.0395548
91731,DolEx Dollar Express,"10947 Main St, El Monte, CA 91731, United States",34.0744655,-118.0359903
91731,Speedy Cash,"11000 Lower Azusa Rd, El Monte, CA 91731, United States",34.0918568,-118.0261143
91731,Advance America,"11007 Lower Azusa Rd Unit E, El Monte, CA 91731, United States",34.09224,-118.02569
91731,El Monte Check Cashing,"2329, 10103 Valley Blvd, El Monte, CA 91731, United States",34.0785512,-118.0502671
91732,ACE Cash Express,"11908 Valley Blvd, El Monte, CA 91732, United States",34.063601,-118.020856
91732,Check Into Cash,"12034 Valley Blvd, El Monte, CA 91732, United States",34.061791,-118.018526
91732,Get Auto Car Loans El Monte CA,"2921 Parkway Dr #3629, El Monte, CA 91732, United States",34.0550036,-118.0124103
91732,Oportun,"3838 Peck Rd, El Monte, CA 91732, United States",34.0754097,-118.0208238
91733,Oportun,"1858 Durfee Ave, South El Monte, CA 91733, United States",34.0432365,-118.0305854
91733,Check `n Go,"1936 N Durfee Ave, South El Monte, CA 91733, United States",34.0445815,-118.030191
91733,Dos Amigos Check Cashing,"2035 N Durfee Ave, South El Monte, CA 91733, United States",34.0472617,-118.029796
91733,California Cash Advance,"2821 Peck Rd c, South El Monte, CA 91733, United States",34.0618375,-118.0309031
91737,Swift Title Loans Rancho Cucamonga,"6436 Haven Ave, Rancho Cucamonga, CA 91737, United States",34.137419,-117.5759745
91740,Ezee Auto Car Title Loans Glendora Ca,"147 W. Rt.66, #309-k, Glendora, CA 91740, United States",34.129226,-117.86611
91740,Eagle Financial,"620 W Rte 66, Glendora, CA 91740, United States",34.1283994,-117.8755427
91741,Car Title Loans California,"102 W Foothill Blvd #34, Glendora, CA 91741, United States",34.1352973,-117.8657464
91741,Cash In A Flash,"Glendora, CA 91741, United States",34.1291928,-117.8642391
91744,Oportun,"1285 N Hacienda Blvd, La Puente, CA 91744, United States",34.0445027,-117.9511283
91744,ACE Cash Express,"1393 N Hacienda Blvd Suite A, La Puente, CA 91744, United States",34.045846,-117.949233
91744,California Check Cashing Stores,"1441 N Hacienda Blvd b, La Puente, CA 91744, United States",34.0470547,-117.9489706
91744,Advance America,"1645 N Hacienda Blvd, La Puente, CA 91744, United States",34.050056,-117.94652
91744,OneMain Financial,"1807 N Hacienda Blvd Ste A, La Puente, CA 91744, United States",34.0513185,-117.9452575
91744,Check `n Go,"1847 N Hacienda Blvd Suite F1, La Puente, CA 91744, United States",34.0522676,-117.9431858
91744,TitleMax Title Loans,"1871 N Hacienda Blvd, La Puente, CA 91744, United States",34.0519638,-117.9428329
91744,Oportun,"831 N Hacienda Blvd, La Puente, CA 91744, United States",34.0344889,-117.9519251
91744,Check Into Cash,"907 N Sunset Ave, La Puente, CA 91744, United States",34.0457361,-117.9633504
91744,Check And Cash,"N Hacienda Blvd, La Puente, CA 91744, United States",34.0365032,-117.94995
91746,5 Star Car Title Loans,"13851 Amar Rd, La Puente, CA 91746, United States",34.0538047,-117.9758464
91750,OneMain Financial,"2278 Foothill Blvd, La Verne, CA 91750, United States",34.111066,-117.7624143
91750,Advance America,"2451 Foothill Blvd Unit C, La Verne, CA 91750, United States",34.111794,-117.75809
91752,Express Payday Loans,"6063 Hamner Ave, Eastvale, CA 91752, United States",33.980145,-117.5601045
91754,OneMain Financial,"2048 S Atlantic Blvd, Monterey Park, CA 91754, United States",34.0393634,-118.1420196
91754,Quick Stop Loans,"2343 S Garfield Ave, Monterey Park, CA 91754, United States",34.0354172,-118.1307285
91761,Oportun,"2448 S Vineyard Ave Ste 109, Ontario, CA 91761, United States",34.029091,-117.6129203
91761,AAA Check Cashing,"2953 S Vineyard Ave, Ontario, CA 91761, United States",34.0199031,-117.6102888
91761,Get Auto Car Title Loans Ontario Ca,"3045 S Archibald Ave H 299, Ontario, CA 91761, United States",34.018233,-117.5912353
91762,Oportun,"1000 N Mountain Ave, Ontario, CA 91762, United States",34.0767566,-117.668514
91762,Check `n Go,"1049 N Mountain Ave, Ontario, CA 91762, United States",34.077463,-117.6706928
91762,Oportun,"1848 S Euclid Ave, Ontario, CA 91762, United States",34.0395555,-117.6524676
91762,ACE Cash Express,"1856 S Euclid Ave Ste B Ste B, Ontario, CA 91762, United States",34.0397564,-117.6518557
91762,OneMain Financial,"2252 S Euclid Ave Ste E, Ontario, CA 91762, United States",34.0320851,-117.6519068
91762,ACE Cash Express,"658 W Holt Blvd C, Ontario, CA 91762, United States",34.064126,-117.660087
91762,Check Into Cash,"727 N Euclid Ave, Ontario, CA 91762, United States",34.071459,-117.651688
91762,Advance America,"972 N Mountain Ave, Ontario, CA 91762, United States",34.075676,-117.668564
91763,Speedy Cash,"4915 Moreno St, Montclair, CA 91763, United States",34.0882493,-117.6975203
91763,Quick Cash Advance,"4980 Holt Blvd, Montclair, CA 91763, United States",34.0635669,-117.6966595
91763,Cash 2 Go # 3,"5281 Mission Blvd, Montclair, CA 91763, United States",34.0553789,-117.6901876
91763,AAA Check Cashing,"9533 Central Ave, Montclair, CA 91763, United States",34.0806541,-117.6884078
91763,EZ Cash,"9744 Central Ave, Montclair, CA 91763, United States",34.076344,-117.6907154
91764,Oportun,"1355 E 4th St, Ontario, CA 91764, United States",34.078421,-117.6267658
91764,Advance America,"1829 E 4th St, Ontario, CA 91764, United States",34.078033,-117.61276
91764,OneMain Financial,"750 N Archibald Ave a, Ontario, CA 91764, United States",34.0713964,-117.592143
91764,Mariner Finance,"951 N Haven Ave unit a, Ontario, CA 91764, United States",34.0753965,-117.5761971
91765,Get Auto Title Loans Diamond Bar CA,"28356 Chinook Pl, Diamond Bar, CA 91765, United States",34.0225732,-117.8019469
91766,Check 2 Cash Pomona,"1180 Philadelphia St #3, Pomona, CA 91766, United States",34.0333671,-117.7329359
91766,Quick Cash Advance,"1285 S Garey Ave # L, Pomona, CA 91766, United States",34.0482731,-117.7503025
91766,Continental Currency Services,"1503 S Garey Ave, Pomona, CA 91766, United States",34.0438818,-117.7503938
91766,Oportun,"2001 S Garey Ave, Pomona, CA 91766, United States",34.0358246,-117.7506276
91766,Check 2 Cash Garey,"2069 S Garey Ave, Pomona, CA 91766, United States",34.0339226,-117.7494425
91766,A A Check Cashing,"2244 S Garey Ave, Pomona, CA 91766, United States",34.0309521,-117.7484778
91766,ACE Cash Express,"545 W Mission Blvd, Pomona, CA 91766, United States",34.055345,-117.754844
91767,ACE Cash Express,"1557 E Holt Ave, Pomona, CA 91767, United States",34.063692,-117.719865
91767,Oportun,"1575 E Holt Ave, Pomona, CA 91767, United States",34.0641578,-117.7199864
91767,Check Into Cash,"1648A Indian Hill Blvd, Pomona, CA 91767, United States",34.0747859,-117.7187685
91767,Get Auto Car Title Loans Pomona Ca,"2869 Providence Way, Pomona, CA 91767, United States",34.0979707,-117.7415647
91767,Action One Check Cashing,"3143 N Garey Ave, Pomona, CA 91767, United States",34.1043324,-117.7492803
91767,Lendmark Financial Services LLC,"355 E Foothill Blvd Suite A, Pomona, CA 91767, United States",34.1076084,-117.7427663
91767,TitleMax Title Loans,"390 E Holt Ave, Pomona, CA 91767, United States",34.062265,-117.744013
91767,ACE Cash Express,"740 E Arrow Hwy, Pomona, CA 91767, United States",34.089753,-117.737577
91768,American Check Cashing,"724 Fairplex Dr, Pomona, CA 91768, United States",34.0624929,-117.7872218
91770,Continental Currency Services,"3106 San Gabriel Blvd #A, Rosemead, CA 91770, United States",34.0649089,-118.0900923
91773,5 Star Car Title Loans,"1411 W Arrow Hwy, San Dimas, CA 91773, United States",34.1071864,-117.8359108
91773,Check Into Cash,"865 Arrow Hwy, San Dimas, CA 91773, United States",34.107733,-117.8240918
91776,Victoria Financial Corp.,"217 W Las Tunas Dr, San Gabriel, CA 91776, United States",34.1027919,-118.102117
91776,Home Loan Mortgage Company,"225 W Valley Blvd Suite # H-133, San Gabriel, CA 91776, United States",34.0798079,-118.1019285
91776,Check `n Go,"301 W Las Tunas Dr A, San Gabriel, CA 91776, United States",34.1027504,-118.1031869
91776,OneMain Financial,"5419 Rosemead Blvd, San Gabriel, CA 91776, United States",34.0978901,-118.0740352
91780,Cashback Loans,"6273 Rosemead Blvd, Temple City, CA 91780, United States",34.1131041,-118.0740175
91780,Check Into Cash,"6320-B North, Rosemead Blvd, Temple City, CA 91780, United States",34.114086,-118.072535
91786,Get Auto Title Loans Upland Ca,"1232 E 13th St #101, Upland, CA 91786, United States",34.11045,-117.634903
91786,Advance America,"1240 W Foothill Blvd, Upland, CA 91786, United States",34.105522,-117.67146
91786,Money Mart,"292 S Mountain Ave, Upland, CA 91786, United States",34.0905345,-117.6696342
91786,Check `n Go,"373 E Foothill Blvd Suite C, Upland, CA 91786, United States",34.1075696,-117.6458516
91786,TFC Title Loans Upland,"485 E Foothill Blvd, Upland, CA 91786, United States",34.1073456,-117.6442465
91786,Inland Jewelry & Loan Inc,"580 E Foothill Blvd, Upland, CA 91786, United States",34.10678,-117.643279
91786,"Hical Financial Group, LLC","637 E Foothill Blvd, Upland, CA 91786, United States",34.1075361,-117.6425905
91789,Golden Check Cashing,"19745 Valley Blvd, Walnut, CA 91789, United States",34.0037673,-117.8702461
91790,L.A. Cash Advance,"2122 W Francisquito Ave a, West Covina, CA 91790, United States",34.0603562,-117.9635464
91791,Cashback Loans,"332 N Azusa Ave, West Covina, CA 91791, United States",34.0768766,-117.90729
91791,Century Loan Services,"351 N Azusa Ave, West Covina, CA 91791, United States",34.0772227,-117.9094299
91791,Payday Express,"540 N Azusa Ave, West Covina, CA 91791, United States",34.0804362,-117.9075599
91791,"Alamo Jewelry & Loan, Pawn, Guns, Ammo, Gold, Diamonds, Silver, Coins, Electronics, Watches","544 N Azusa Ave, West Covina, CA 91791, United States",34.0805427,-117.9074664
91791,A Advance,"548 N Azusa Ave, West Covina, CA 91791, United States",34.0806239,-117.9075391
91792,Aces Jewelry and Loan,"1071 E Amar Rd, West Covina, CA 91792, United States",34.03587,-117.9240621
91792,Cashback Loans,"2349 S Azusa Ave, West Covina, CA 91792, United States",34.0333858,-117.914548
91801,Lendmerit Finance Company,"129 E Valley Blvd, Alhambra, CA 91801, United States",34.0788782,-118.1213267
91803,ACE Cash Express,"1700 W Valley Blvd, Alhambra, CA 91803, United States",34.077098,-118.142055
91803,Advance America,"2581 W Commonwealth Ave, Alhambra, CA 91803, United States",34.088284,-118.151535
91910,USA Checks Cashed & Payday Advance,"201 Broadway, Chula Vista, CA 91910, United States",32.6412403,-117.0932005
91910,Checkmate,"459 Broadway Ste. B, Chula Vista, CA 91910, United States",32.6324077,-117.0897946
91910,Check `n Go,"481 Broadway, Chula Vista, CA 91910, United States",32.6316925,-117.0891994
91910,OneMain Financial,"520 Broadway #4, Chula Vista, CA 91910, United States",32.6301192,-117.0896509
91910,Lendmark Financial Services LLC,"545 Telegraph Canyon Rd, Chula Vista, CA 91910, United States",32.62901,-117.038936
91910,Sun Cash,"730 H St, Chula Vista, CA 91910, United States",32.6291139,-117.0947376
91910,Advance America,"790 Broadway, Chula Vista, CA 91910, United States",32.620953,-117.08595
91911,USA Check Center (formerly Check Center),"1090 3rd Ave Unit B, Chula Vista, CA 91911, United States",32.614168,-117.069566
91911,Moneytree,"1111 Broadway Suite 308, Chula Vista, CA 91911, United States",32.6096835,-117.0807166
91911,Oportun,"1355 Broadway, Chula Vista, CA 91911, United States",32.6027006,-117.0775522
91911,Advance America,"263 E Orange Ave Ste. D2, Chula Vista, CA 91911, United States",32.60425,-117.04064
91911,ACE Cash Express,"325 Palomar St, Chula Vista, CA 91911, United States",32.606362,-117.067289
91911,The Check Cashing Place,"4302 1337, 3rd Ave, Chula Vista, CA 91911, United States",32.6059605,-117.0649734
91911,Payday Money Centers- Chula Vista,"860 3rd Ave, Chula Vista, CA 91911, United States",32.6222276,-117.073144
91914,Gibran Suffy - Planet Home Lending,"891 Kuhn Dr #200, Chula Vista, CA 91914, United States",32.6516373,-116.9650078
91932,Taking Care of Business,"1146 13th St Suite 101, Imperial Beach, CA 91932, United States",32.5755848,-117.1060916
91932,Check Cashing,"1146 13th St, Imperial Beach, CA 91932, United States",32.5755531,-117.1060143
91942,Sun Cash,"5419 El Cajon Blvd, La Mesa, CA 91942, United States",32.757559,-117.0788633
91942,ACE Cash Express,"7900 El Cajon Blvd ste h, La Mesa, CA 91942, United States",32.769697,-117.026727
91942,La Mesa Ca Top Auto Car Lender,"8697 La Mesa Blvd ste c 502-g, La Mesa, CA 91942, United States",32.7690408,-117.0095674
91942,Check `n Go,"La Mesa, CA 91942, United States",32.7820096,-117.0316922
91945,Lendmark Financial Services LLC,"6957 Broadway, Lemon Grove, CA 91945, United States",32.7418437,-117.0476299
91945,Advanced Pay USA,"6961 Broadway, Lemon Grove, CA 91945, United States",32.7417503,-117.0475319
91945,Check Into Cash,"7026 Broadway, Lemon Grove, CA 91945, United States",32.743338,-117.046624
91945,USA Checks Cashed & Payday Advance,"7109 Broadway, Lemon Grove, CA 91945, United States",32.7420808,-117.0449541
91945,Moneytree,"7475 Broadway, Lemon Grove, CA 91945, United States",32.7422759,-117.0366213
91945,The Check Cashing Place,"7808 Broadway, Lemon Grove, CA 91945, United States",32.7429854,-117.0302301
91950,The Check Cashing Place,"1539 E Plaza Blvd, National City, CA 91950, United States",32.6772777,-117.0897589
91950,USA Checks Cashed & Payday Advance,"1610 Highland Ave, National City, CA 91950, United States",32.670992,-117.096259
91950,OneMain Financial,"1722 Sweetwater Rd Suite F, National City, CA 91950, United States",32.660618,-117.081358
91950,Advance America,"2240 E Plaza Blvd Ste. H, National City, CA 91950, United States",32.678593,-117.081436
91950,Sun Cash,"2720 E Plaza Blvd l, National City, CA 91950, United States",32.6801476,-117.0780111
91950,Oportun,"3007 Highland Ave, National City, CA 91950, United States",32.6588276,-117.0889162
91950,Advance Pay Day Plus Inc,"724 Highland Ave b, National City, CA 91950, United States",32.6772578,-117.0987761
91950,Check Into Cash,"925 E Plaza Blvd ste h, National City, CA 91950, United States",32.677411,-117.096165
91950,USA Checks Cashed & Payday Advance,"936 Highland Ave, National City, CA 91950, United States",32.6764701,-117.0983704
91977,USA Checks Cashed & Payday Advance,"521 Sweetwater Rd, Spring Valley, CA 91977, United States",32.707307,-117.0093295
91977,The Check Cashing Place,"8365 Paradise Valley Rd #16, Spring Valley, CA 91977, United States",32.697004,-117.0190459
91977,Top Auto Car Loans Spring Valley Ca,"9740 Campo Rd suite 1003-m, Spring Valley, CA 91977, United States",32.7485269,-116.9858686
91980,Multiservicios Chavez,"438 Tecate Rd, Tecate, CA 91980, United States",32.5782485,-116.6289309
92008,AAA Private Money,"2173 Salk Ave Ste. #250, Carlsbad, CA 92008, United States",33.1392964,-117.2759725
92008,OneMain Financial,"5950 La Place Ct #165, Carlsbad, CA 92008, United States",33.1327783,-117.2714235
92019,Get Auto Car Title Loans El Cajon Ca,"772 Jamacha Road # 120, El Cajon, CA 92019, United States",32.7859303,-116.928296
92020,ACE Cash Express,"1175 Avocado Ave #104, El Cajon, CA 92020, United States",32.77955,-116.95651
92020,OneMain Financial,"2856 Fletcher Pkwy, El Cajon, CA 92020, United States",32.8014916,-117.004393
92021,USA Check Center (formerly Check Center),"1090 E Main St #103, El Cajon, CA 92021, United States",32.7953455,-116.9448133
92021,Checkmate,"1103 Broadway, El Cajon, CA 92021, United States",32.807194,-116.944335
92021,George's Check Cashing,"1150 N 2nd St, El Cajon, CA 92021, United States",32.810449,-116.9359727
92021,Check Into Cash,"1224 Broadway #101, El Cajon, CA 92021, United States",32.807964,-116.93885
92021,Moneytree,"303 N 2nd St, El Cajon, CA 92021, United States",32.7976602,-116.9352843
92021,Check `n Go,"336 Broadway, El Cajon, CA 92021, United States",32.808394,-116.9588787
92021,The Check Cashing Place,"358 N 2nd St, El Cajon, CA 92021, United States",32.7990179,-116.9365501
92021,Speedy Cash,"380 S Broadway Ste 103, El Cajon, CA 92021, United States",32.8081767,-116.9585865
92021,Advance America,"534 N 2nd St, El Cajon, CA 92021, United States",32.800797,-116.93684
92021,Payday,"Broadway, El Cajon, CA 92021, United States",32.8074964,-116.9586766
92024,Payday Money Centers- Encinitas,"206 N El Camino Real, Encinitas, CA 92024, United States",33.0489751,-117.2609994
92024,Loans Till Payday Center,"270 El Camino Real, Encinitas, CA 92024, United States",33.052172,-117.263079
92024,Express Cash Advance,"959 2nd St, Encinitas, CA 92024, United States",33.0416238,-117.2941562
92025,USA Check Center (formerly Check Center),"102 E Mission Ave, Escondido, CA 92025, United States",33.1307638,-117.0850702
92025,North County Loans & Jewelry,"205 W Mission Ave Ste S, Escondido, CA 92025, United States",33.129163,-117.0876825
92025,Check Advance,"242 W Mission Ave # A, Escondido, CA 92025, United States",33.1299542,-117.0895237
92025,Oportun,"242 W Mission Ave suite a, Escondido, CA 92025, United States",33.1300801,-117.0891226
92025,Payday Money Centers- Escondido,"321 W Mission Ave, Escondido, CA 92025, United States",33.1282253,-117.0898521
92025,Gems N' Loans - Escondido,"340 W 2nd Ave, Escondido, CA 92025, United States",33.119182,-117.084407
92025,Check `n Go,"505 West Washington Blvd, Escondido, CA 92025, United States",33.124556,-117.090191
92025,TitleMax Title Loans,"765 N Escondido Blvd, Escondido, CA 92025, United States",33.1286265,-117.0893712
92026,Fast Auto and Payday Loans,"190 W El Norte Pkwy, Escondido, CA 92026, United States",33.1394788,-117.0912239
92026,Lendmark Financial Services LLC,"306 W El Norte Pkwy Suite A, Escondido, CA 92026, United States",33.1417673,-117.0940489
92026,The Check Cashing Place,"695 E Lincoln Ave, Escondido, CA 92026, United States",33.1355304,-117.0787421
92027,Checkmate,"1202 E Valley Pkwy, Escondido, CA 92027, United States",33.1308627,-117.066833
92027,Advance America,"1221 B E Valley Pkwy, Escondido, CA 92027, United States",33.129887,-117.06605
92027,USA Check Center (formerly Check Center),"1565 E Valley Pkwy, Escondido, CA 92027, United States",33.1335212,-117.0599959
92028,Quetzal Express,"212 W Aviation Rd, Fallbrook, CA 92028, United States",33.3737561,-117.2528647
92028,Fast Money Car Title Loans,"315 E Mission Rd, Fallbrook, CA 92028, United States",33.3844583,-117.2488688
92029,OneMain Financial,"1276 Auto Park Way E, Escondido, CA 92029, United States",33.1127696,-117.0992662
92054,Car Title Loans California,"1211 Civic Center Dr, Oceanside, CA 92054, United States",33.2006635,-117.3756735
92054,Check `n Go,"1906 Oceanside Blvd A, Oceanside, CA 92054, United States",33.1937905,-117.3561778
92054,The Check Cashing Place,"1919 Mission Ave, Oceanside, CA 92054, United States",33.2034282,-117.3648828
92054,Omni Military Loans,"2216 S El Camino Real #208, Oceanside, CA 92054, United States",33.1861172,-117.3272345
92054,Check Into Cash,"3881 Mission Ave Suite C-3, Oceanside, CA 92054, United States",33.2266659,-117.3270002
92054,Moneytree,"518 Oceanside Blvd #112, Oceanside, CA 92054, United States",33.1841219,-117.368869
92054,Checkpoint Check Cashing LLC,"560 Greenbrier Dr #103, Oceanside, CA 92054, United States",33.1950708,-117.3553994
92056,Pioneer Services Military Loans - Camp Pendleton,"41 Douglas Dr Babies, Oceanside, CA 92056, United States",33.226576,-117.326564
92056,Advance America,"4225 Oceanside Blvd Ste. N, Oceanside, CA 92056, United States",33.206814,-117.283585
92057,Check `n Go,"467 College Blvd Suite H6, Oceanside, CA 92057, United States",33.2443934,-117.291812
92058,CFSC The Check Cashing Place Oceanside,"1919 Mission Ave Ste. A, Oceanside, CA 92058, United States",33.2034005,-117.3649417
92058,Gems N‚Äô Loans - Oceanside,"3753 Mission Ave #111, Oceanside, CA 92058, United States",33.2242211,-117.3316985
92058,Get Auto Car Title Loans Oceanside Ca,"3784 Mission Ave #148-363, Oceanside, CA 92058, United States",33.2289426,-117.332235
92064,Check `n Go,"12636 Poway Rd #10poway, Poway, CA 92064, United States",32.9551383,-117.0579641
92064,Checks-N-Advance,"12759 Poway Rd #110, Poway, CA 92064, United States",32.9555711,-117.0540637
92069,ACE Cash Express,"500 W San Marcos Blvd #101, San Marcos, CA 92069, United States",33.139367,-117.17214
92078,Check Cash of San Marcos,"273 S Rancho Santa Fe Rd, San Marcos, CA 92078, United States",33.1438448,-117.2011439
92078,Capital Jewelry & Loan,"727 W San Marcos Blvd UNIT 109, San Marcos, CA 92078, United States",33.1359389,-117.1796426
92078,USA Check Center,"844 W San Marcos Blvd # A, San Marcos, CA 92078, United States",33.1365766,-117.1835021
92081,Pro Debt Solutions,"314 S Melrose Dr, Vista, CA 92081, United States",33.1916678,-117.2522188
92081,Check Into Cash,"510 Hacienda Dr #111, Vista, CA 92081, United States",33.192139,-117.251605
92083,Montana Capital Car Title Loans,"1234 N Santa Fe Ave Suite #118, Vista, CA 92083, United States",33.2164786,-117.2459498
92083,Montana Capital Car Title Loans,"1275 S Santa Fe Ave Suite 105, Vista, CA 92083, United States",33.1870682,-117.2255381
92083,DolEx Dollar Express,"280 Vista Village Dr #100, Vista, CA 92083, United States",33.199531,-117.248248
92083,Advance America,"770 Sycamore Ave Ste. 123, Vista, CA 92083, United States",33.163635,-117.21942
92083,USA Check Center (formerly Check Center),"836 North Santa Fe Avenue # A # A, Vista, CA 92083, United States",33.2111,-117.245251
92083,Gems N' Loans - Vista,"925 S Santa Fe Ave, Vista, CA 92083, United States",33.1930348,-117.2337945
92084,Checkmate,"897 E Vista Way, Vista, CA 92084, United States",33.21055,-117.232265
92084,ACE Cash Express,"950 E Vista Way #1, Vista, CA 92084, United States",33.21195,-117.230679
92101,The Check Cashing Place,"1255 Imperial Ave, San Diego, CA 92101, United States",32.7056804,-117.1533226
92101,USA Checks Cashed & Payday Advance,"421 Broadway, San Diego, CA 92101, United States",32.7155693,-117.1606524
92101,The Check Cashing Place,"945 Fifth Ave, San Diego, CA 92101, United States",32.7152956,-117.1598902
92103,Check `n Go,"1264 University Ave, San Diego, CA 92103, United States",32.7490941,-117.1521359
92103,Checkmate,"405 W Washington St, San Diego, CA 92103, United States",32.7496614,-117.1614604
92104,Check Into Cash,"1965-A El Cajon Blvd, San Diego, CA 92104, United States",32.75479,-117.14426
92104,Moneytree,"2702 El Cajon Blvd, San Diego, CA 92104, United States",32.755801,-117.1348314
92104,USA Checks Cashed & Payday Advance,"3001 El Cajon Blvd #100, San Diego, CA 92104, United States",32.7550411,-117.1299126
92104,Advance America,"3145 El Cajon Blvd, San Diego, CA 92104, United States",32.755108,-117.12666
92105,USA Check Center (formerly Check Center),"1722 Euclid Ave, San Diego, CA 92105, United States",32.723261,-117.085291
92105,Payday Money Centers- East San Diego,"4090 El Cajon Blvd, San Diego, CA 92105, United States",32.755456,-117.107628
92105,24 Hour Payday Loans in San Diego,"4121 University Ave, San Diego, CA 92105, United States",32.7495374,-117.1063741
92105,Cashco Pawn Shop San Diego (Gold & Diamond Buyers),"4502 University Ave #103, San Diego, CA 92105, United States",32.7498715,-117.0973159
92106,First Financial,"2850 Womble Rd ste 100-604, San Diego, CA 92106, United States",32.735834,-117.2166759
92108,OneMain Financial,"9095 Rio San Diego Dr #340, San Diego, CA 92108, United States",32.7751059,-117.1357587
92110,Moneytree,"3445 Midway Dr Suite M, San Diego, CA 92110, United States",32.7505525,-117.2130102
92110,ACE Cash Express,"3740 Rosecrans St D, San Diego, CA 92110, United States",32.75231,-117.204349
92111,Payday Money Centers- Kearny Mesa,"4488 Convoy St, San Diego, CA 92111, United States",32.8213706,-117.1555657
92111,The Check Cashing Place,"6143 Balboa Ave, San Diego, CA 92111, United States",32.8197159,-117.175113
92111,Urgent Cash,"7608 Linda Vista Rd # 119, San Diego, CA 92111, United States",32.801528,-117.1585015
92111,Quick Cash Funding LLC | Car Title Loans,"7710 Balboa Ave #303, San Diego, CA 92111, United States",32.8223555,-117.1580887
92113,Oportun,"1410 S 43rd St, San Diego, CA 92113, United States",32.6914586,-117.1043861
92113,Omni Military Loans,"2850 Main St, San Diego, CA 92113, United States",32.6932383,-117.1327138
92113,The Check Cashing Place,"3553 National Ave, San Diego, CA 92113, United States",32.6958325,-117.1177481
92115,USA Checks Cashed & Payday Advance,"5404 El Cajon Blvd, San Diego, CA 92115, United States",32.7580683,-117.0791678
92115,Oportun,"5971 University Ave, San Diego, CA 92115, United States",32.7501874,-117.0680651
92115,Speedy Cash,"6686 El Cajon Blvd, San Diego, CA 92115, United States",32.7685136,-117.055006
92115,Moneytree,"6979 El Cajon Blvd, San Diego, CA 92115, United States",32.7685265,-117.0476509
92117,Cash Plus,"3007 Clairemont Dr # J, San Diego, CA 92117, United States",32.7941802,-117.1927059
92117,Advance America,"4120 Clairemont Mesa Blvd Unit 101-C, San Diego, CA 92117, United States",32.830128,-117.20201
92117,ACE Cash Express,"4874 Genesee Ave, San Diego, CA 92117, United States",32.83381,-117.19503
92117,Check Into Cash,"5163 Clairemont Mesa Blvd, San Diego, CA 92117, United States",32.833769,-117.179792
92121,Loan Guy,"10509 Vista Sorrento Pkwy, San Diego, CA 92121, United States",32.8977556,-117.2163376
92123,Checkmate,"9211 Clairemont Mesa Blvd #102, San Diego, CA 92123, United States",32.8312105,-117.1306299
92126,The Check Cashing Place,"10606 Camino Ruiz, San Diego, CA 92126, United States",32.9100085,-117.1448694
92126,USA Payday Loans / Payday Advance,"10825 Westview Pkwy, San Diego, CA 92126, United States",32.9175845,-117.1203052
92126,Check `n Go,"9460C Mira Mesa Blvd, San Diego, CA 92126, United States",32.9190814,-117.1212798
92126,Advance Check Express,"9473 Black Mountain Rd, San Diego, CA 92126, United States",32.8943086,-117.1233087
92131,OneMain Financial,"9909 Mira Mesa Blvd #155, San Diego, CA 92131, United States",32.9158551,-117.1130089
92154,Advance America,"1515 Palm Ave Ste. L, San Diego, CA 92154, United States",32.583546,-117.10115
92154,Check `n Go,"675 Saturn Blvd Suite E, San Diego, CA 92154, United States",32.5848615,-117.0895344
92173,5 Star Car Title Loans,"159 W San Ysidro Blvd #1, San Ysidro, CA 92173, United States",32.5533741,-117.0465581
92173,Marco Check Cashing,"318 E San Ysidro Blvd, San Diego, CA 92173, United States",32.5511516,-117.0392867
92173,MRK Casa De Cambio,"337 E San Ysidro Blvd, San Diego, CA 92173, United States",32.5510738,-117.0382775
92173,Intercam,"364 E San Ysidro Blvd, San Diego, CA 92173, United States",32.5506334,-117.0386655
92173,Oportun,"517 E San Ysidro Blvd, San Diego, CA 92173, United States",32.5500292,-117.0358598
92173,Checkmate,"642 E San Ysidro Blvd #50, San Ysidro, CA 92173, United States",32.547847,-117.0344204
92173,Selecto Services Title Loans - LoanMart San Ysidro,"650 E W San Ysidro Blvd Suite 101, San Ysidro, CA 92173, United States",32.5469321,-117.0335724
92201,Rocky's Check Cashing,"45330 Fargo St, Indio, CA 92201, United States",33.7190959,-116.2166027
92201,DolEx Dollar Express,"81673 CA-111 ste 2-a, Indio, CA 92201, United States",33.707711,-116.24029
92201,Advance America,"81673 CA-111 Ste. 5, Indio, CA 92201, United States",33.70773,-116.240234
92201,Cashback Loans,"82158 CA-111, Indio, CA 92201, United States",33.7152075,-116.2319167
92201,Oportun,"82266 CA-111, Indio, CA 92201, United States",33.7166099,-116.2301322
92201,Check Into Cash,"82280 CA-111 #101, Indio, CA 92201, United States",33.715092,-116.2293627
92201,Checkmate,"83244 CA-111, Indio, CA 92201, United States",33.715321,-116.212057
92201,Car Cash Loans,"83373 CA-111, Indio, CA 92201, United States",33.7147124,-116.2099503
92203,Get Auto Car Title Loans Indio Ca,"42250 Jackson St Suite C103-5, Indio, CA 92203, United States",33.7407701,-116.2160308
92211,imortgage,"41990 Cook St, Palm Desert, CA 92211, United States",33.7496358,-116.3559145
92211,Pawnshield Fine Jewelry & Loan,"74836 Technology Dr #105, Palm Desert, CA 92211, United States",33.7832877,-116.3564653
92211,Online California Title Loans,"77734 Country Club Dr STE A2, Palm Desert, CA 92211, United States",33.7587237,-116.3086276
92211,Online Ez Palm Desert Car Auto Title Loans,"78206 Varner Road Suite D #1002-B, Palm Desert, CA 92211, United States",33.7626957,-116.2991003
92220,Eagles Check Cashing,"1891 W Ramsey St, Banning, CA 92220, United States",33.9254104,-116.8970642
92220,California Check Cashing Stores,"1939 W Ramsey St Ste A, Banning, CA 92220, United States",33.9257057,-116.8980767
92220,Advance America,"300 S Highland Springs Ave Suite 6D, Banning, CA 92220, United States",33.92526,-116.94509
92220,DolEx Dollar Express,"3485 W Ramsey St, Banning, CA 92220, United States",33.9262329,-116.9148883
92220,Check `n Go,"6350 W Ramsey St, Banning, CA 92220, United States",33.9285159,-116.9463785
92225,Advance America,"1200 W Hobsonway Ste A, Blythe, CA 92225, United States",33.60983,-114.61007
92225,Instant Cash,"139 Hobsonway, Blythe, CA 92225, United States",33.6105116,-114.5978671
92225,River Pawn,"231 N Spring St, Blythe, CA 92225, United States",33.6127778,-114.5986111
92225,Check Into Cash,"713 W Hobsonway, Blythe, CA 92225, United States",33.611288,-114.604657
92225,Western Union,"Check Into Cash, 713 W Hobsonway, Blythe, CA 92225, United States",33.6112748,-114.6046524
92227,California Check Cashing Stores,"110 Main St, Brawley, CA 92227, United States",32.9783065,-115.5412943
92227,Advance America,"182 W Main St, Brawley, CA 92227, United States",32.978207,-115.5432
92227,ACE Cash Express,"283 Main St D, Brawley, CA 92227, United States",32.979255,-115.538136
92227,Chek Kash Title Loans - LoanMart Brawley,"610 S Brawley Ave, Brawley, CA 92227, United States",32.972144,-115.5419813
92231,Imperial Valley Loan Center,"1015 George Ave, Calexico, CA 92231, United States",32.6788123,-115.504188
92231,Advance America,"1113 Imperial Avenue West, Ste. #106, Calexico, CA 92231, United States",32.680687,-115.49984
92231,MoneyGram,"1113 N, Imperial Ave # 106, Calexico, CA 92231, United States",32.6807142,-115.4996523
92231,ACE Cash Express,"22 W 7th St, Calexico, CA 92231, United States",32.671721,-115.499432
92231,Oportun,"2300 Imperial Ave, Calexico, CA 92231, United States",32.69168,-115.496959
92231,EC Cambio Express - ECON,"725 Imperial Ave, Calexico, CA 92231, United States",32.6731088,-115.4988395
92231,Checkmate,"825 Imperial Ave, Calexico, CA 92231, United States",32.67525,-115.49892
92233,Ortiz Recycle Center,"123 W Alexandria St, Calipatria, CA 92233, United States",33.1266115,-115.5150883
92234,Advance America,"31-755 Date Palm Dr Ste. E, Cathedral City, CA 92234, United States",33.817947,-116.45968
92234,Oportun,"31655 Date Palm Dr, Cathedral City, CA 92234, United States",33.8186004,-116.4598888
92234,MoneyGram,"31755 Date Palm Dr e, Cathedral City, CA 92234, United States",33.8180332,-116.4597266
92234,OneMain Financial,"34481 Date Palm Dr #2a, Cathedral City, CA 92234, United States",33.7981334,-116.4599577
92234,Montana Capital Car Title Loans,"36135 Cathedral Canyon Dr STE 5, Cathedral City, CA 92234, United States",33.7849207,-116.4672449
92234,California Check Cashing Stores,"67460 E Palm Canyon Dr, Cathedral City, CA 92234, United States",33.79061,-116.485056
92234,Cashback Loans,"68225 Ramon Rd Ste C, Cathedral City, CA 92234, United States",33.8157369,-116.4717078
92234,Rocky's Pawn Shop,"68435 CA-111, Cathedral City, CA 92234, United States",33.7802224,-116.4682702
92234,Money Mart,"68461 E Palm Canyon Dr, Cathedral City, CA 92234, United States",33.7803573,-116.4675445
92234,DolEx Dollar Express,"68535 Ramon Rd suite b-101, Cathedral City, CA 92234, United States",33.8157393,-116.4659213
92236,Check `n Go,"49271 Grapefruit Blvd #2, Coachella, CA 92236, United States",33.68936,-116.1840855
92236,DolEx Dollar Express,"49805 Harrison St, Coachella, CA 92236, United States",33.6863887,-116.18293
92236,California Check Cashing Stores,"50223 Cesar Chavez St #101, Coachella, CA 92236, United States",33.6816028,-116.1818751
92236,Oportun,"50249 Harrison St, Coachella, CA 92236, United States",33.6824225,-116.182534
92236,Western Union,"Rite Aid, 51101 Harrison St, Coachella, CA 92236, United States",33.677717,-116.182211
92240,Money Mart,"12537 Palm Dr, Desert Hot Springs, CA 92240, United States",33.9574133,-116.5014823
92240,Get Auto Car Title Loans Desert Hot Springs Ca,"14080 Palm Dr Ste D # 227, Desert Hot Springs, CA 92240, United States",33.9459286,-116.4985913
92240,Check Into Cash,"14250 Palm Dr suite a-9, Desert Hot Springs, CA 92240, United States",33.945362,-116.500004
92243,Advance America,"1523 Main St Ste. #107, El Centro, CA 92243, United States",32.791523,-115.571014
92243,ACE Cash Express,"1602 N Imperial Ave B, El Centro, CA 92243, United States",32.80779,-115.570413
92243,Checkmate,"200 N Imperial Ave, El Centro, CA 92243, United States",32.7938728,-115.5701994
92243,Oportun,"2052 N Imperial Ave, El Centro, CA 92243, United States",32.8120943,-115.5670849
92243,Check Cash,"252 S Imperial Ave, El Centro, CA 92243, United States",32.790698,-115.5701413
92243,"Arizona Smart Cash, Inc.","493 S 4th St, El Centro, CA 92243, United States",32.78905,-115.5522626
92243,Imperial Valley Loan Center,"710 Main St, El Centro, CA 92243, United States",32.7925672,-115.5592371
92249,Check Cash,"70 E Main St, Heber, CA 92249, United States",32.7309545,-115.5283154
92253,Balboa Thrift and Loan,"79440 Corporate Centre Dr, La Quinta, CA 92253, United States",33.7096006,-116.2784062
92260,Car Title Loans California,"44853 Portola Ave, Palm Desert, CA 92260, United States",33.722225,-116.3740309
92260,Rocky's Pawn Shop,"44900 San Pablo Ave, Palm Desert, CA 92260, United States",33.722201,-116.382275
92260,CFS Car Title Loans,"73700 CA-111 #10, Palm Desert, CA 92260, United States",33.7217172,-116.3793189
92260,American AgCredit,"74199 El Paseo #101, Palm Desert, CA 92260, United States",33.7207834,-116.3704022
92262,MoneyGram,"1717 E Vista Chino #2, Palm Springs, CA 92262, United States",33.8439451,-116.5260608
92262,Advance America,"1717 E. Vista Chino, #A-2, Palm Springs, CA 92262, United States",33.843666,-116.52645
92262,AmWest Mortgage Palm Springs ‚Äì Reverse Mortgage Division,"440 S, El Cielo Rd, Palm Springs, CA 92262, United States",33.8172354,-116.5098643
92264,The Jewelry Vault & Loan,"1502 S Palm Canyon Dr, Palm Springs, CA 92264, United States",33.8038467,-116.5454637
92264,Get Auto Car Title Loans Palm Springs Ca,"1775 E Palm Canyon Dr suite 110 ""-1003, Palm Springs, CA 92264, United States",33.7998527,-116.5271095
92264,5 Star Car Title Loans,"4633 E, Ramon Rd, Palm Springs, CA 92264, United States",33.8154567,-116.496008
92264,Rocky's Pawn Shop,"691 S Palm Canyon Dr, Palm Springs, CA 92264, United States",33.8123757,-116.5448523
92270,We Find Lenders,"8 Durango Dr, Rancho Mirage, CA 92270, United States",33.738563,-116.3925228
92277,Check Into Cash,"73737 Twentynine Palms Highway, Twentynine Palms, CA 92277, United States",34.135226,-116.053738
92283,Instant Cash Inc,"2105 W Winterhaven Dr, Winterhaven, CA 92283, United States",32.7378743,-114.6338589
92283,Arizona Smart Cash Inc,"2143 Winterhaven Dr, Winterhaven, CA 92283, United States",32.737878,-114.633781
92284,Loan Lady,"56100 Twentynine Palms Highway, Yucca Valley, CA 92284, United States",34.1208878,-116.4410627
92284,Money Mart,"57228 1/2 Twentynine Palms Highway, Yucca Valley, CA 92284, United States",34.1242764,-116.4157939
92284,First Natioms Home Finance,"57402 Twentynine Palms Highway #11, Yucca Valley, CA 92284, United States",34.1249958,-116.4115969
92284,Check `n Go,"57562 Twentynine Palms Highway, Yucca Valley, CA 92284, United States",34.1262396,-116.4091203
92284,Check Into Cash,"Big Lots, 56887 Twentynine Palms Highway, Yucca Valley, CA 92284, United States",34.1199274,-116.4231263
92301,USA Checks Cashed & Payday Advance,"11600 Bartlett Ave Unit 2, Adelanto, CA 92301, United States",34.5796412,-117.4116319
92301,Car Title Loans California,"11965 Cactus Rd SUITE #F, Adelanto, CA 92301, United States",34.5350454,-117.4023153
92301,Check `n Go,"12100 Palmdale RoadSuite 8-B El Mirage, Adelanto, CA 92301, United States",34.5075029,-117.4014587
92307,Get Auto Car Title Loans Apple Valley Ca,"17868 US Highway 18 # 409, Apple Valley, CA 92307, United States",34.540072,-117.272863
92307,Guru Financial,"18930 Outer Hwy 18 N #103, Apple Valley, CA 92307, United States",34.537767,-117.2509922
92307,USA Checks Cashed & Payday Advance,"20226-C, CA-18, Apple Valley, CA 92307, United States",34.528055,-117.2226
92308,Express Cash Advance,"12145 Kiowa Rd, Apple Valley, CA 92308, United States",34.472993,-117.2087711
92308,USA Checks Cashed & Payday Advance,"20920 Bear Valley Rd, Apple Valley, CA 92308, United States",34.471904,-117.207349
92308,Advance America,"21620 Bear Valley Rd Unit D-5, Apple Valley, CA 92308, United States",34.47278,-117.19164
92311,Check Into Cash,"1234 E Main St, Barstow, CA 92311, United States",34.8966893,-117.0087228
92311,Get Auto Title Loans Barstow CA,"501 E Virginia Way # 1-A, Barstow, CA 92311, United States",34.8890395,-117.0208406
92311,Advance America,"578 E Virginia Way Suite 11, Barstow, CA 92311, United States",34.887547,-117.01917
92311,Fast Auto and Payday Loans,"600 E Main St, Barstow, CA 92311, United States",34.8985089,-117.0207107
92314,Thrivent Financial for Lutherans,"100 E Big Bear Blvd, Big Bear, CA 92314, United States",34.2608825,-116.8453639
92324,Get Auto Car Title Loans Colton Ca,"1040 S Mt Vernon Ave # G-118, Colton, CA 92324, United States",34.0517752,-117.3080741
92324,ACE Cash Express,"1049 N Mt Vernon Ave, Colton, CA 92324, United States",34.075542,-117.3142
92324,Oportun,"1057 N Mt Vernon Ave, Colton, CA 92324, United States",34.0754046,-117.3145369
92324,Check Into Cash,"1300 E Washington, #D-6, Colton, CA 92324, United States",34.04705,-117.304116
92324,S & A Checks Cashing & More,"1705 E Washington St, Colton, CA 92324, United States",34.048635,-117.299115
92324,Advance America,"2021 E Washington St Ste. 3-C, Colton, CA 92324, United States",34.050625,-117.29257
92324,High Risk Cash Advance,"595 W Valley Blvd, Colton, CA 92324, United States",34.0682161,-117.3318558
92335,Advance America,"10012 Sierra Ave, Fontana, CA 92335, United States",34.071896,-117.436516
92335,Advance America,"16075 -D, Foothill Blvd, Fontana, CA 92335, United States",34.105396,-117.45408
92335,ACE Cash Express,"16184 Foothill Blvd Suite G, Fontana, CA 92335, United States",34.107706,-117.452511
92335,Oportun,"16212 East, Foothill Blvd, Fontana, CA 92335, United States",34.1078421,-117.4513036
92335,Oportun,"16721 Valley Blvd, Fontana, CA 92335, United States",34.0689442,-117.4389311
92335,Check Into Cash,"16855 Valley Blvd STE G, Fontana, CA 92335, United States",34.0683477,-117.4364772
92335,ACE Cash Express,"16920 Foothill Blvd E, Fontana, CA 92335, United States",34.107906,-117.434846
92335,RPM Lenders Title Loans,"17218 Foothill Blvd #107, Fontana, CA 92335, United States",34.1069908,-117.4291386
92335,USA Checks Cashed & Payday Advance,"9311 Sierra Ave, Fontana, CA 92335, United States",34.0846703,-117.4353829
92335,Payday Advance,"9673 Sierra Ave, Fontana, CA 92335, United States",34.0782459,-117.4349316
92335,Money Mart,"9844 Sierra Ave, Fontana, CA 92335, United States",34.0750535,-117.4359879
92336,OneMain Financial,"16695 Sierra Lakes Pkwy #100, Fontana, CA 92336, United States",34.1387805,-117.4392874
92337,Check `n Go,"10540 Sierra Ave #200, Fontana, CA 92337, United States",34.0620077,-117.4361375
92337,Cash 2 Go,"2789, 11623 Cherry Ave # 4, Fontana, CA 92337, United States",34.0426114,-117.4859412
92345,Advance America,"14073 Main St Ste. 101, Hesperia, CA 92345, United States",34.426144,-117.3572
92345,Cashback Loans,"14875 Main St Ste 103, Hesperia, CA 92345, United States",34.4264554,-117.339015
92345,Check Into Cash,"15461 Main St #105, Hesperia, CA 92345, United States",34.424834,-117.326369
92345,Oportun,"15555 Main St, Hesperia, CA 92345, United States",34.4232345,-117.3235332
92345,Money Mart,"15800 Main St #230, Hesperia, CA 92345, United States",34.4245996,-117.3170886
92345,USA Checks Cashed & Payday Advance,"16352 Main St, Hesperia, CA 92345, United States",34.4225648,-117.3063791
92345,Advance America,"17251 Main St, Hesperia, CA 92345, United States",34.419193,-117.2872
92346,Moneytree,"26529 Highland Ave, Highland, CA 92346, United States",34.1343862,-117.2251947
92346,Get Auto Title Loans Highland CA,"7912 Beckett Ct #A, Highland, CA 92346, United States",34.1094486,-117.1779491
92373,Advance America,"1564 Barton Rd, Redlands, CA 92373, United States",34.048706,-117.208115
92373,California Check Cashing Stores,"1615 W Redlands Blvd, Redlands, CA 92373, United States",34.0624107,-117.2095158
92373,Cashback Loans,"2068 W Redlands Blvd Ste B, Redlands, CA 92373, United States",34.0634994,-117.2248492
92373,Check `n Go,"700 E Redlands Blvd, Redlands, CA 92373, United States",34.0480747,-117.1707563
92374,New Horizon Mortgage Concepts,"1255 W Colton Ave # 120, Redlands, CA 92374, United States",34.062002,-117.201946
92374,Get Auto Title Loans Redlands CA,"1364 Cornell Ave #B47, Redlands, CA 92374, United States",34.067948,-117.158407
92374,Check Into Cash,"434 Orange St ste 3-e, Redlands, CA 92374, United States",34.0593248,-117.181754
92374,ACE Cash Express,"6 W Colton Ave, Redlands, CA 92374, United States",34.06321,-117.182772
92374,California Payday Advance,"702 W Colton Ave ste g, Redlands, CA 92374, United States",34.0630481,-117.1904996
92376,Speedy Cash,"120 W Baseline Rd, Rialto, CA 92376, United States",34.1216415,-117.3706965
92376,Pacific Cash Advance,"123 W Foothill Blvd, Rialto, CA 92376, United States",34.106563,-117.3713141
92376,ACE Cash Express,"1270 W Foothill Blvd F, Rialto, CA 92376, United States",34.10792,-117.39544
92376,Lendmark Financial Services LLC,"1270 W Foothill Blvd Suite C, Rialto, CA 92376, United States",34.1079023,-117.3956459
